{
   "type": "FeatureCollection",
   "features": [
  {
    "type": "Feature",
    "geometry": {
       "type": "Point",
       "coordinates":  { }
    },
    "properties": {
    "reseller_name":"StringFilter",
    "reseller_full_address":"tringFilter"
    }
  },
  {
    "type": "Feature",
    "geometry": {
       "type": "Point",
       "coordinates":  [ 6.1966287,46.2380571 ]
    },
    "properties": {
    "reseller_name":"PP Pharmacie Principale - Life Store - Vésenaz Centre Manor",
    "reseller_full_address":"route de Thonon 40 1222 Vésenaz"
    }
  },
  {
    "type": "Feature",
    "geometry": {
       "type": "Point",
       "coordinates":  [ 6.1146467,46.2181595 ]
    },
    "properties": {
    "reseller_name":"PP Pharmacie Principale - Life Store - Balexert",
    "reseller_full_address":"avenue Louis-Casaï 27 1209 Genève"
    }
  },
  {
    "type": "Feature",
    "geometry": {
       "type": "Point",
       "coordinates":  [ 6.1276872,46.1800373 ]
    },
    "properties": {
    "reseller_name":"PP Pharmacie Principale - Life Store - La Praille",
    "reseller_full_address":"Route des Jeunes 10 1212 Grand-Lancy"
    }
  },
  {
    "type": "Feature",
    "geometry": {
       "type": "Point",
       "coordinates":  [ 6.1436705,46.204186 ]
    },
    "properties": {
    "reseller_name":"PP Pharmacie Principale - Life Store - Confédération Centre",
    "reseller_full_address":"Rue de la Monnaie 1-3 1204 Genève"
    }
  },
  {
    "type": "Feature",
    "geometry": {
       "type": "Point",
       "coordinates":  [ 6.156744799999999,46.3336062 ]
    },
    "properties": {
    "reseller_name":"PP Pharmacie Principale - Life Store - Chavannes Centre",
    "reseller_full_address":"chemin Industriel 1 1279 Chavannes-de-Bogis"
    }
  },
  {
    "type": "Feature",
    "geometry": {
       "type": "Point",
       "coordinates":  [ 6.160152099999999,46.2007709 ]
    },
    "properties": {
    "reseller_name":"PP Pharmacie Principale - Life Store - Eaux-Vives 2000",
    "reseller_full_address":"rue de Jargonnant 3 1207 Genève"
    }
  },
  {
    "type": "Feature",
    "geometry": {
       "type": "Point",
       "coordinates":  [ 7.345195700000001,47.359483 ]
    },
    "properties": {
    "reseller_name":"Pharmacie du Jura SA",
    "reseller_full_address":"Route de Rossemaison 48 2800 Délémont"
    }
  },
  {
    "type": "Feature",
    "geometry": {
       "type": "Point",
       "coordinates":  [ 6.842975699999999,46.94434210000001 ]
    },
    "properties": {
    "reseller_name":"Pharmacie Littoral-Centre",
    "reseller_full_address":"Chemin de Ronzi 2 2016 Cortaillod"
    }
  },
  {
    "type": "Feature",
    "geometry": {
       "type": "Point",
       "coordinates":  [ 6.140115499999999,46.1848768 ]
    },
    "properties": {
    "reseller_name":"Pharmacie St-Victor SA",
    "reseller_full_address":"Rue St-Victor 24 1227 Carouge"
    }
  },
  {
    "type": "Feature",
    "geometry": {
       "type": "Point",
       "coordinates":  [ 6.1522961,46.201623 ]
    },
    "properties": {
    "reseller_name":"Pharmacie Populaire SA Grosclaude",
    "reseller_full_address":"Cours de Rive 2 1204 Genève"
    }
  },
  {
    "type": "Feature",
    "geometry": {
       "type": "Point",
       "coordinates":  [ 6.1396373,46.1804898 ]
    },
    "properties": {
    "reseller_name":"Pharmacie Plus du Rondeau",
    "reseller_full_address":"Rue Ancienne 84 1227 Carouge"
    }
  },
  {
    "type": "Feature",
    "geometry": {
       "type": "Point",
       "coordinates":  [ 6.166290699999999,46.2009577 ]
    },
    "properties": {
    "reseller_name":"PP Pharmacie Principale - Life Store - Gare des Eaux Vives",
    "reseller_full_address":"Avenue de la Gare des Eaux vives 7 1207 Genève"
    }
  },
  {
    "type": "Feature",
    "geometry": {
       "type": "Point",
       "coordinates":  [ 7.4079997,46.25160169999999 ]
    },
    "properties": {
    "reseller_name":"Pharmacie Plus Uvrier Centre",
    "reseller_full_address":"Route d´Italie 115 1958 Uvrier"
    }
  },
  {
    "type": "Feature",
    "geometry": {
       "type": "Point",
       "coordinates":  [ 6.1623717,46.1928303 ]
    },
    "properties": {
    "reseller_name":"Amavita Florissant 10061",
    "reseller_full_address":"Route de Florissant  70 1206 Genève"
    }
  },
  {
    "type": "Feature",
    "geometry": {
       "type": "Point",
       "coordinates":  [ 6.1846469,46.1663796 ]
    },
    "properties": {
    "reseller_name":"Pharmacie de Veyrier SA",
    "reseller_full_address":"Chemin de Sous-Balme 15 1255 Veyrier"
    }
  },
  {
    "type": "Feature",
    "geometry": {
       "type": "Point",
       "coordinates":  [ 6.155559999999999,46.20274000000001 ]
    },
    "properties": {
    "reseller_name":"Pharmacie Rive Gauche",
    "reseller_full_address":"boulevard Helvétique 40 1207 Genève"
    }
  },
  {
    "type": "Feature",
    "geometry": {
       "type": "Point",
       "coordinates":  [ 6.1108389,46.1887888 ]
    },
    "properties": {
    "reseller_name":"Pharmacie Populaire  SA Petit-Lancy/Onex",
    "reseller_full_address":"Rue des Bossons 88 a 1213 Petit-Lancy"
    }
  },
  {
    "type": "Feature",
    "geometry": {
       "type": "Point",
       "coordinates":  [ 6.1158639,46.2372458 ]
    },
    "properties": {
    "reseller_name":"PP Pharmacie Principale - Life Store - Aéroport",
    "reseller_full_address":"Aéroport 1215 Genève"
    }
  },
  {
    "type": "Feature",
    "geometry": {
       "type": "Point",
       "coordinates":  [ 6.136419,46.1839975 ]
    },
    "properties": {
    "reseller_name":"Pharmacieplus des Fontaines",
    "reseller_full_address":"Avenue Vibert 20-24 1227 Carouge"
    }
  },
  {
    "type": "Feature",
    "geometry": {
       "type": "Point",
       "coordinates":  [ 9.357161099999999,47.3988829 ]
    },
    "properties": {
    "reseller_name":"Hockenjos Biologische Apotheke",
    "reseller_full_address":"Battenhusstrasse 12 9062 Lustmühle"
    }
  },
  {
    "type": "Feature",
    "geometry": {
       "type": "Point",
       "coordinates":  [ 6.0341379,46.2132683 ]
    },
    "properties": {
    "reseller_name":"Pharmacieplus du Mandement",
    "reseller_full_address":"Route d´Aire la Ville 212 1242 Satigny"
    }
  },
  {
    "type": "Feature",
    "geometry": {
       "type": "Point",
       "coordinates":  [ 7.1517763,46.8019741 ]
    },
    "properties": {
    "reseller_name":"Pharmacie Pérolles 6 Thiémard",
    "reseller_full_address":"Boulevard Pérolles 6 1700 Fribourg"
    }
  },
  {
    "type": "Feature",
    "geometry": {
       "type": "Point",
       "coordinates":  [ 6.140466399999999,46.2021997 ]
    },
    "properties": {
    "reseller_name":"Pharmacie EAUXVIVES-FAVON",
    "reseller_full_address":"Bvd Georges-Favon 15 1204 Genève"
    }
  },
  {
    "type": "Feature",
    "geometry": {
       "type": "Point",
       "coordinates":  [ 6.1581413,46.2037962 ]
    },
    "properties": {
    "reseller_name":"Pharmacie Eauxvives-Lac",
    "reseller_full_address":"Rue des Eaux-Vives 16 1207 Genève"
    }
  },
  {
    "type": "Feature",
    "geometry": {
       "type": "Point",
       "coordinates":  [ 6.1421879,46.2071678 ]
    },
    "properties": {
    "reseller_name":"PP Pharmacie Principale - Life Store - Coutance",
    "reseller_full_address":"Rue de Cornavin 2 1201 Genève"
    }
  },
  {
    "type": "Feature",
    "geometry": {
       "type": "Point",
       "coordinates":  [ 6.1436004,46.18540549999999 ]
    },
    "properties": {
    "reseller_name":"Pharmacie Populaire Carouge",
    "reseller_full_address":"Av. Cardinal Mermillod 36 1227 Carouge"
    }
  },
  {
    "type": "Feature",
    "geometry": {
       "type": "Point",
       "coordinates":  [ 6.1823795,46.21657769999999 ]
    },
    "properties": {
    "reseller_name":"Pharmacie de Cologny S.A.",
    "reseller_full_address":"Place du Manoir 20 1223 Cologny"
    }
  },
  {
    "type": "Feature",
    "geometry": {
       "type": "Point",
       "coordinates":  [ 7.3756115,47.36224670000001 ]
    },
    "properties": {
    "reseller_name":"Pharmacie du Val Terbi",
    "reseller_full_address":"Place des Mouleurs 2 2822 Courroux"
    }
  },
  {
    "type": "Feature",
    "geometry": {
       "type": "Point",
       "coordinates":  [ 6.192427299999999,46.3157744 ]
    },
    "properties": {
    "reseller_name":"Pharmacie de Coppet",
    "reseller_full_address":"Grand Rue 46 1296 Coppet"
    }
  },
  {
    "type": "Feature",
    "geometry": {
       "type": "Point",
       "coordinates":  [ 6.1422168,46.2098114 ]
    },
    "properties": {
    "reseller_name":"Amavita Gare Genève 10062",
    "reseller_full_address":"Place Cornavin 3 1201 Genève"
    }
  },
  {
    "type": "Feature",
    "geometry": {
       "type": "Point",
       "coordinates":  [ 6.458343500000001,46.4829113 ]
    },
    "properties": {
    "reseller_name":"Pharmacie de St-Prex",
    "reseller_full_address":"Centre commercial Coop 1162 Saint-Prex"
    }
  },
  {
    "type": "Feature",
    "geometry": {
       "type": "Point",
       "coordinates":  [ 6.1985909,46.240334 ]
    },
    "properties": {
    "reseller_name":"Sun Store Vésenaz SA 12078",
    "reseller_full_address":"Route de Thonon 55 1222 Vésenaz"
    }
  },
  {
    "type": "Feature",
    "geometry": {
       "type": "Point",
       "coordinates":  [ 6.2059735,46.3972772 ]
    },
    "properties": {
    "reseller_name":"Sun Store Signy Centre SA 12089",
    "reseller_full_address":"Signy Centre Rue des Fléchères 7A 1274 Signy-Avenex"
    }
  },
  {
    "type": "Feature",
    "geometry": {
       "type": "Point",
       "coordinates":  [ 7.4678882,46.3064984 ]
    },
    "properties": {
    "reseller_name":"Pharmacie Pharma-Crans SA",
    "reseller_full_address":"Rue de la Grand Place 7 3963 Crans-Montana"
    }
  },
  {
    "type": "Feature",
    "geometry": {
       "type": "Point",
       "coordinates":  [ 6.143898999999999,46.204025 ]
    },
    "properties": {
    "reseller_name":"Pharmacie Populaire Cité",
    "reseller_full_address":"Rue de la Confédération 3 1204 Genève"
    }
  },
  {
    "type": "Feature",
    "geometry": {
       "type": "Point",
       "coordinates":  [ 6.161637499999999,46.19954449999999 ]
    },
    "properties": {
    "reseller_name":"Pharmacie de Roches  SA",
    "reseller_full_address":"Chemin de Roches 1 1208 Genève"
    }
  },
  {
    "type": "Feature",
    "geometry": {
       "type": "Point",
       "coordinates":  [ 6.8313527,47.1027949 ]
    },
    "properties": {
    "reseller_name":"Pharmacie de l'Hôtel de Ville",
    "reseller_full_address":"Av. Léopold-Robert 7 2300 La Chaux-de-Fonds"
    }
  },
  {
    "type": "Feature",
    "geometry": {
       "type": "Point",
       "coordinates":  [ 6.1343663,46.1844175 ]
    },
    "properties": {
    "reseller_name":"Sun Store Carouge Praille SA 12043",
    "reseller_full_address":"M-Parc la Praille 1227 Carouge"
    }
  },
  {
    "type": "Feature",
    "geometry": {
       "type": "Point",
       "coordinates":  [ 6.1296181,46.2203393 ]
    },
    "properties": {
    "reseller_name":"Pharmacie Populaire SA Moillebeau 21",
    "reseller_full_address":"rue de Moillebeau 42A 1209 Genève"
    }
  },
  {
    "type": "Feature",
    "geometry": {
       "type": "Point",
       "coordinates":  [ 6.0740352,46.176193 ]
    },
    "properties": {
    "reseller_name":"Pharmacie de Bernex",
    "reseller_full_address":"Rue de Bernex 260 1233 Bernex"
    }
  },
  {
    "type": "Feature",
    "geometry": {
       "type": "Point",
       "coordinates":  [ 6.144762800000001,46.2035176 ]
    },
    "properties": {
    "reseller_name":"Amavita Confédération Centre  10041",
    "reseller_full_address":"Rue de la Confédération 10 1204 Genève"
    }
  },
  {
    "type": "Feature",
    "geometry": {
       "type": "Point",
       "coordinates":  [ 6.2166438,46.4354083 ]
    },
    "properties": {
    "reseller_name":"Pharmacie de Genolier",
    "reseller_full_address":"Route de la Gare 5 1272 Genolier"
    }
  },
  {
    "type": "Feature",
    "geometry": {
       "type": "Point",
       "coordinates":  [ 7.1329558,46.7935545 ]
    },
    "properties": {
    "reseller_name":"Pharmacies BENU SA / Cormanon",
    "reseller_full_address":"Rue du Centre 4 1752 Villars-sur-Glâne"
    }
  },
  {
    "type": "Feature",
    "geometry": {
       "type": "Point",
       "coordinates":  [ 6.9248134,46.9986764 ]
    },
    "properties": {
    "reseller_name":"Pharmacieplus des Cadolles",
    "reseller_full_address":"Rue du Plan 32 2000 Neuchatel"
    }
  },
  {
    "type": "Feature",
    "geometry": {
       "type": "Point",
       "coordinates":  [ 6.226548200000001,46.385732 ]
    },
    "properties": {
    "reseller_name":"Pharmacie des Saules",
    "reseller_full_address":"Chemin des Saules 2c 1260 Nyon"
    }
  },
  {
    "type": "Feature",
    "geometry": {
       "type": "Point",
       "coordinates":  [ 6.131307199999999,46.2249199 ]
    },
    "properties": {
    "reseller_name":"Pharmacie Parc de Budé SA",
    "reseller_full_address":"Avenue de Budé 15 1202 Genève"
    }
  },
  {
    "type": "Feature",
    "geometry": {
       "type": "Point",
       "coordinates":  [ 6.9013401,47.0586443 ]
    },
    "properties": {
    "reseller_name":"Pharmacie Plus Marti",
    "reseller_full_address":"rue Frédéric Soguel 4 2053 Cernier"
    }
  },
  {
    "type": "Feature",
    "geometry": {
       "type": "Point",
       "coordinates":  [ 6.1453741,46.2077801 ]
    },
    "properties": {
    "reseller_name":"Pharmacie Plaza SA",
    "reseller_full_address":"Rue du Cendrier 21 1201 Genève"
    }
  },
  {
    "type": "Feature",
    "geometry": {
       "type": "Point",
       "coordinates":  [ 7.078551999999999,46.787824 ]
    },
    "properties": {
    "reseller_name":"Sun Store Avry SA 12019",
    "reseller_full_address":"MMM Avry Centre 1754 Avry-sur-Matran"
    }
  },
  {
    "type": "Feature",
    "geometry": {
       "type": "Point",
       "coordinates":  [ 6.1436272,46.1931743 ]
    },
    "properties": {
    "reseller_name":"Sun Store Genève Plainpalais 12070",
    "reseller_full_address":"Rue de Carouge 64 1205 Genève"
    }
  },
  {
    "type": "Feature",
    "geometry": {
       "type": "Point",
       "coordinates":  [ 6.1659963,46.2800601 ]
    },
    "properties": {
    "reseller_name":"Sun Store Versoix SA 12090",
    "reseller_full_address":"Chemin J.-B Vandelle 8A 1290 Versoix"
    }
  },
  {
    "type": "Feature",
    "geometry": {
       "type": "Point",
       "coordinates":  [ 6.155625199999999,46.1945549 ]
    },
    "properties": {
    "reseller_name":"Pharmacie de Champel",
    "reseller_full_address":"Rue de l´Athénée 39 1206 Genève"
    }
  },
  {
    "type": "Feature",
    "geometry": {
       "type": "Point",
       "coordinates":  [ 6.1606845,46.2028211 ]
    },
    "properties": {
    "reseller_name":"Pharmacie du 31 Décembre",
    "reseller_full_address":"Rue du 31 décembre 43 1207 Genève"
    }
  },
  {
    "type": "Feature",
    "geometry": {
       "type": "Point",
       "coordinates":  [ 7.276214099999999,47.2383021 ]
    },
    "properties": {
    "reseller_name":"Pharmacie Plus Salzmann",
    "reseller_full_address":"Place de la gare 3 2735 Malleray"
    }
  },
  {
    "type": "Feature",
    "geometry": {
       "type": "Point",
       "coordinates":  [ 6.8898527,46.9865289 ]
    },
    "properties": {
    "reseller_name":"Pharmacie Gauchat",
    "reseller_full_address":"Place de la Fontaine 4 2034 Peseux"
    }
  },
  {
    "type": "Feature",
    "geometry": {
       "type": "Point",
       "coordinates":  [ 6.630589199999999,46.5218086 ]
    },
    "properties": {
    "reseller_name":"Pharmacie Amavita Conod 10004",
    "reseller_full_address":"Rue Pichard 16 1003 Lausanne"
    }
  },
  {
    "type": "Feature",
    "geometry": {
       "type": "Point",
       "coordinates":  [ 6.6335444,46.5217693 ]
    },
    "properties": {
    "reseller_name":"Amavita NutriBio La Palud 10010",
    "reseller_full_address":"Place de la Palud 23 1003 Lausanne"
    }
  },
  {
    "type": "Feature",
    "geometry": {
       "type": "Point",
       "coordinates":  [ 6.3911564,46.4952074 ]
    },
    "properties": {
    "reseller_name":"Pharmacie du Marché",
    "reseller_full_address":"Rue de l´Hotel de Ville 19 1170 Aubonne"
    }
  },
  {
    "type": "Feature",
    "geometry": {
       "type": "Point",
       "coordinates":  [ 6.1364803,46.18904980000001 ]
    },
    "properties": {
    "reseller_name":"Pharmacie Populaire SA Epinettes",
    "reseller_full_address":"Rue des Epinettes 20 1227 Carouge"
    }
  },
  {
    "type": "Feature",
    "geometry": {
       "type": "Point",
       "coordinates":  [ 6.8251,47.1006002 ]
    },
    "properties": {
    "reseller_name":"Pharmacie Pillonel SA",
    "reseller_full_address":"Avenue Balancier 7 2300 La Chaux-de-Fonds"
    }
  },
  {
    "type": "Feature",
    "geometry": {
       "type": "Point",
       "coordinates":  [ 6.1433541,46.1966292 ]
    },
    "properties": {
    "reseller_name":"Amavita Plainpalais 10048",
    "reseller_full_address":"Rue de Carouge 13 1205 Genève"
    }
  },
  {
    "type": "Feature",
    "geometry": {
       "type": "Point",
       "coordinates":  [ 6.2041514,46.3568638 ]
    },
    "properties": {
    "reseller_name":"Pharmacie de Crans-Celigny SA",
    "reseller_full_address":"Rue des Artisans 7 1299 Crans-près-Céligny"
    }
  },
  {
    "type": "Feature",
    "geometry": {
       "type": "Point",
       "coordinates":  [ 6.127452,46.2081404 ]
    },
    "properties": {
    "reseller_name":"Pharmacie Populaire Charmilles",
    "reseller_full_address":"Place des Charmilles 1-3 1211 Genève"
    }
  },
  {
    "type": "Feature",
    "geometry": {
       "type": "Point",
       "coordinates":  [ 6.1487898,46.2001176 ]
    },
    "properties": {
    "reseller_name":"Nouvelle Pharmacie du Bourg-de-Four",
    "reseller_full_address":"Place du Bourg de Four 1204 Genève"
    }
  },
  {
    "type": "Feature",
    "geometry": {
       "type": "Point",
       "coordinates":  [ 6.9292836,46.9909663 ]
    },
    "properties": {
    "reseller_name":"Amavita Tripet 10071",
    "reseller_full_address":"Rue du Seyon 8 2000 Neuchâtel"
    }
  },
  {
    "type": "Feature",
    "geometry": {
       "type": "Point",
       "coordinates":  [ 6.636877699999999,46.5195499 ]
    },
    "properties": {
    "reseller_name":"Sen'Su Pharmacie",
    "reseller_full_address":"Rue St Pierre 4 1003 Lausanne"
    }
  },
  {
    "type": "Feature",
    "geometry": {
       "type": "Point",
       "coordinates":  [ 6.1588449,46.2041821 ]
    },
    "properties": {
    "reseller_name":"Pharmacie Populaire SA Jet d'Eau",
    "reseller_full_address":"Rue des Eaux Vives 22 1207 Genève"
    }
  },
  {
    "type": "Feature",
    "geometry": {
       "type": "Point",
       "coordinates":  [ 7.3070683,46.22334070000001 ]
    },
    "properties": {
    "reseller_name":"Pharmacies BENU SA / Châteauneuf-Conthey",
    "reseller_full_address":"Rue des Rottes 50 1964 Conthey"
    }
  },
  {
    "type": "Feature",
    "geometry": {
       "type": "Point",
       "coordinates":  [ 7.1536871,46.8033847 ]
    },
    "properties": {
    "reseller_name":"Pharmacies BENU SA / La Galerie",
    "reseller_full_address":"Avenue de la Gare 22 1700 Fribourg"
    }
  },
  {
    "type": "Feature",
    "geometry": {
       "type": "Point",
       "coordinates":  [ 6.0835195,46.2148508 ]
    },
    "properties": {
    "reseller_name":"Pharmacie du Vieux Village S.A.",
    "reseller_full_address":"Rue du Village 18 1214 Vernier"
    }
  },
  {
    "type": "Feature",
    "geometry": {
       "type": "Point",
       "coordinates":  [ 6.276611399999999,46.4168154 ]
    },
    "properties": {
    "reseller_name":"Pharmacie de Mauverney SA",
    "reseller_full_address":"Rue de Mauverney 24 1196 Gland"
    }
  },
  {
    "type": "Feature",
    "geometry": {
       "type": "Point",
       "coordinates":  [ 6.158041900000001,46.1876548 ]
    },
    "properties": {
    "reseller_name":"Pharmacie Cité Universitaire SA",
    "reseller_full_address":"Chemin des Clochettes  8 A 1206 Genève"
    }
  },
  {
    "type": "Feature",
    "geometry": {
       "type": "Point",
       "coordinates":  [ 6.172104,46.3068381 ]
    },
    "properties": {
    "reseller_name":"Pharmacie de Mies",
    "reseller_full_address":"Route de Saint-Cergue 3 1295 Mies"
    }
  },
  {
    "type": "Feature",
    "geometry": {
       "type": "Point",
       "coordinates":  [ 7.088691110053619,46.78094249721418 ]
    },
    "properties": {
    "reseller_name":"Pharmacies BENU SA / Matran",
    "reseller_full_address":"Route du bois 1 1753 Matran"
    }
  },
  {
    "type": "Feature",
    "geometry": {
       "type": "Point",
       "coordinates":  [ 6.4980707,46.5098432 ]
    },
    "properties": {
    "reseller_name":"Sun Store Morges Centre SA 12082",
    "reseller_full_address":"Rue Centrale 12 1110 Morges"
    }
  },
  {
    "type": "Feature",
    "geometry": {
       "type": "Point",
       "coordinates":  [ 6.496777400000001,46.5079725 ]
    },
    "properties": {
    "reseller_name":"Pharmacie Populaire Charpié",
    "reseller_full_address":"Grand Rue 100 1110 Morges"
    }
  },
  {
    "type": "Feature",
    "geometry": {
       "type": "Point",
       "coordinates":  [ 6.1659273,46.1939133 ]
    },
    "properties": {
    "reseller_name":"Pharmacie Rieu-Tour",
    "reseller_full_address":"Chemin Bizot 4 1208 Genève"
    }
  },
  {
    "type": "Feature",
    "geometry": {
       "type": "Point",
       "coordinates":  [ 6.1219832,46.1750206 ]
    },
    "properties": {
    "reseller_name":"Pharmacie Populaire SA  Noyer",
    "reseller_full_address":"Chemin des Palettes 3 1212 Grand-Lancy"
    }
  },
  {
    "type": "Feature",
    "geometry": {
       "type": "Point",
       "coordinates":  [ 6.338063,46.461358 ]
    },
    "properties": {
    "reseller_name":"Sun Store Rolle SA 12030",
    "reseller_full_address":"Centre MMM Les Eaux 2 1180 Rolle"
    }
  },
  {
    "type": "Feature",
    "geometry": {
       "type": "Point",
       "coordinates":  [ 7.0601749,46.6370703 ]
    },
    "properties": {
    "reseller_name":"Pharmacieplus de Riaz",
    "reseller_full_address":"2, Imp. des Terreaux 1632 Riaz"
    }
  },
  {
    "type": "Feature",
    "geometry": {
       "type": "Point",
       "coordinates":  [ 6.1457552,46.2094947 ]
    },
    "properties": {
    "reseller_name":"Pharmacie des Alpes",
    "reseller_full_address":"Rue des Alpes 17 1201 Genève"
    }
  },
  {
    "type": "Feature",
    "geometry": {
       "type": "Point",
       "coordinates":  [ 6.149145499999999,46.21158399999999 ]
    },
    "properties": {
    "reseller_name":"Pharmacie Populaire SA Navigation",
    "reseller_full_address":"Rue de la Navigation 1 1201 Genève"
    }
  },
  {
    "type": "Feature",
    "geometry": {
       "type": "Point",
       "coordinates":  [ 6.098422999999999,46.1826038 ]
    },
    "properties": {
    "reseller_name":"Pharmacie d'Onex SA",
    "reseller_full_address":"Chemin de l´Auberge 2 1213 Onex"
    }
  },
  {
    "type": "Feature",
    "geometry": {
       "type": "Point",
       "coordinates":  [ 6.118263499999999,46.2307861 ]
    },
    "properties": {
    "reseller_name":"Pharmacie de la Tour",
    "reseller_full_address":"Ch Edouard Sarasin 24 1218 Le Grand-Saconnex"
    }
  },
  {
    "type": "Feature",
    "geometry": {
       "type": "Point",
       "coordinates":  [ 6.1429855,46.1894622 ]
    },
    "properties": {
    "reseller_name":"Pharmacie La Clef d'Arve",
    "reseller_full_address":"Rue de Carouge 110 1205 Genève"
    }
  },
  {
    "type": "Feature",
    "geometry": {
       "type": "Point",
       "coordinates":  [ 6.6376813,46.5207736 ]
    },
    "properties": {
    "reseller_name":"Pharmacie Plus de Marterey",
    "reseller_full_address":"Rue Caroline 6 1003 Lausanne"
    }
  },
  {
    "type": "Feature",
    "geometry": {
       "type": "Point",
       "coordinates":  [ 6.1018035,46.1914501 ]
    },
    "properties": {
    "reseller_name":"Pharmacie Populaire SA Grandes-Communes",
    "reseller_full_address":"Av. Grandes-Communes 37 1213 Onex"
    }
  },
  {
    "type": "Feature",
    "geometry": {
       "type": "Point",
       "coordinates":  [ 7.0717364,46.1021464 ]
    },
    "properties": {
    "reseller_name":"Sun Store Martigny Manoir SA 12008",
    "reseller_full_address":"Place du Manoir 1920 Martigny"
    }
  },
  {
    "type": "Feature",
    "geometry": {
       "type": "Point",
       "coordinates":  [ 6.1629583,46.1966198 ]
    },
    "properties": {
    "reseller_name":"Pharmacie de Malagnou",
    "reseller_full_address":"Rte de Malagnou 48 1208 Genève"
    }
  },
  {
    "type": "Feature",
    "geometry": {
       "type": "Point",
       "coordinates":  [ 6.1422544,46.19436349999999 ]
    },
    "properties": {
    "reseller_name":"Pharmanature",
    "reseller_full_address":"Rue Dancet 3 1205 Genève"
    }
  },
  {
    "type": "Feature",
    "geometry": {
       "type": "Point",
       "coordinates":  [ 6.3352243,46.4628237 ]
    },
    "properties": {
    "reseller_name":"Pharmacieplus de la Harpe",
    "reseller_full_address":"Route de la vallée 7 1180 Rolle"
    }
  },
  {
    "type": "Feature",
    "geometry": {
       "type": "Point",
       "coordinates":  [ 6.6750894,46.9395888 ]
    },
    "properties": {
    "reseller_name":"Pharmacie de l'Areuse SA",
    "reseller_full_address":"Rue Miéville 9 2105 Val-de-Travers"
    }
  },
  {
    "type": "Feature",
    "geometry": {
       "type": "Point",
       "coordinates":  [ 6.929467799999999,46.9917167 ]
    },
    "properties": {
    "reseller_name":"Pharmacie Plus Centrale Matthys SA",
    "reseller_full_address":"13 rue de l´Hôpital 2001 Neuchâtel"
    }
  },
  {
    "type": "Feature",
    "geometry": {
       "type": "Point",
       "coordinates":  [ 6.1315743,46.2123202 ]
    },
    "properties": {
    "reseller_name":"Pharmacie Populaire SA Rive Droite Drugstore",
    "reseller_full_address":"Rue de la Servette 81-83 1202 Genève"
    }
  },
  {
    "type": "Feature",
    "geometry": {
       "type": "Point",
       "coordinates":  [ 8.036235200000002,46.754542 ]
    },
    "properties": {
    "reseller_name":"Dropa Drogerie Haslebacher",
    "reseller_full_address":"Hauptstrasse 131 3855 Brienz"
    }
  },
  {
    "type": "Feature",
    "geometry": {
       "type": "Point",
       "coordinates":  [ 6.528529499999999,46.518226 ]
    },
    "properties": {
    "reseller_name":"Pharma Swiss Health SA Pharmacie de Préverenges",
    "reseller_full_address":"Route de Lausanne 17 1028 Préverenges"
    }
  },
  {
    "type": "Feature",
    "geometry": {
       "type": "Point",
       "coordinates":  [ 6.2346735,46.3827319 ]
    },
    "properties": {
    "reseller_name":"Sun Store Nyon Combe SA 12032",
    "reseller_full_address":"Rue de la Morâche 6 1260 Nyon"
    }
  },
  {
    "type": "Feature",
    "geometry": {
       "type": "Point",
       "coordinates":  [ 8.8497369,47.2581187 ]
    },
    "properties": {
    "reseller_name":"APODRO Drogerie Rüti",
    "reseller_full_address":"Bandwiesstrasse 4 8630 Rüti"
    }
  },
  {
    "type": "Feature",
    "geometry": {
       "type": "Point",
       "coordinates":  [ 6.111455599999999,46.1869795 ]
    },
    "properties": {
    "reseller_name":"Sun Store Petit-Lancy SA 12042",
    "reseller_full_address":"Route de Chancy 71 1213 Petit-Lancy"
    }
  },
  {
    "type": "Feature",
    "geometry": {
       "type": "Point",
       "coordinates":  [ 6.6291587,46.5210707 ]
    },
    "properties": {
    "reseller_name":"Pharmacie Plus du Flon",
    "reseller_full_address":"Voie du Chariot 6 1003 Lausanne"
    }
  },
  {
    "type": "Feature",
    "geometry": {
       "type": "Point",
       "coordinates":  [ 6.9135689,46.4309612 ]
    },
    "properties": {
    "reseller_name":"Pharmacie Holistique",
    "reseller_full_address":"Av. des Planches 22c 1820 Montreux"
    }
  },
  {
    "type": "Feature",
    "geometry": {
       "type": "Point",
       "coordinates":  [ 6.639186199999999,46.7794885 ]
    },
    "properties": {
    "reseller_name":"Pharmacie Centrale Emery S.A.",
    "reseller_full_address":"Rue du lac 27 1400 Yverdon-les-Bains"
    }
  },
  {
    "type": "Feature",
    "geometry": {
       "type": "Point",
       "coordinates":  [ 6.109088799999999,46.2369794 ]
    },
    "properties": {
    "reseller_name":"Sun Store Genève Aéroport SA 12041",
    "reseller_full_address":"Gare CFF Genève Aéroport 1215 Genève"
    }
  },
  {
    "type": "Feature",
    "geometry": {
       "type": "Point",
       "coordinates":  [ 6.5681767,46.55376769999999 ]
    },
    "properties": {
    "reseller_name":"Sun Store Crissier SA 12055",
    "reseller_full_address":"Chemin du Closalet 7 1023 Crissier"
    }
  },
  {
    "type": "Feature",
    "geometry": {
       "type": "Point",
       "coordinates":  [ 6.3384405,46.4581957 ]
    },
    "properties": {
    "reseller_name":"Pharmacie Plus de l'Ile",
    "reseller_full_address":"Grand-Rue 58 bis 1180 Rolle"
    }
  },
  {
    "type": "Feature",
    "geometry": {
       "type": "Point",
       "coordinates":  [ 6.074069199999999,46.17665969999999 ]
    },
    "properties": {
    "reseller_name":"Pharmacieplus de Saule S.A.",
    "reseller_full_address":"Chemin de Saule 27 1233 Bernex"
    }
  },
  {
    "type": "Feature",
    "geometry": {
       "type": "Point",
       "coordinates":  [ 6.094111100000001,46.20144089999999 ]
    },
    "properties": {
    "reseller_name":"Amavita du Lignon 10086",
    "reseller_full_address":"Centre commercialPlace du Lignon 19 1219 Le Lignon"
    }
  },
  {
    "type": "Feature",
    "geometry": {
       "type": "Point",
       "coordinates":  [ 6.651787499999999,46.5257132 ]
    },
    "properties": {
    "reseller_name":"Pharmacie Plus de la Fauvette SA",
    "reseller_full_address":"Avenue de Chailly 6 1000 Lausanne 12 "
    }
  },
  {
    "type": "Feature",
    "geometry": {
       "type": "Point",
       "coordinates":  [ 6.826916499999999,47.1007268 ]
    },
    "properties": {
    "reseller_name":"Pharmacie Centrale LCF SA",
    "reseller_full_address":"Av. Léopold-Robert 47-49 2300 La Chaux-de-Fonds"
    }
  },
  {
    "type": "Feature",
    "geometry": {
       "type": "Point",
       "coordinates":  [ 6.8848312,46.98348439999999 ]
    },
    "properties": {
    "reseller_name":"Pharmacie de la Gare",
    "reseller_full_address":"Place de la Gare 1 2002 Neuchâtel 2 "
    }
  },
  {
    "type": "Feature",
    "geometry": {
       "type": "Point",
       "coordinates":  [ 6.4855008,46.507241 ]
    },
    "properties": {
    "reseller_name":"Pharmacie Amavita Gottaz Centre 10002",
    "reseller_full_address":"Av de Gottaz 28 1110 Morges"
    }
  },
  {
    "type": "Feature",
    "geometry": {
       "type": "Point",
       "coordinates":  [ 6.5981122,46.5330077 ]
    },
    "properties": {
    "reseller_name":"Pharmacieplus de Florissant",
    "reseller_full_address":"Avenue de Florissant 28 1020 Renens"
    }
  },
  {
    "type": "Feature",
    "geometry": {
       "type": "Point",
       "coordinates":  [ 6.6416523,46.76530109999999 ]
    },
    "properties": {
    "reseller_name":"Pharmacie des Découvertes",
    "reseller_full_address":"Avenue des découvertes 3 1400 Yverdon-les-Bains"
    }
  },
  {
    "type": "Feature",
    "geometry": {
       "type": "Point",
       "coordinates":  [ 6.4260313,46.4738015 ]
    },
    "properties": {
    "reseller_name":"Sun Store Etoy SA 12083",
    "reseller_full_address":"Route Suisse 26 1163 Etoy"
    }
  },
  {
    "type": "Feature",
    "geometry": {
       "type": "Point",
       "coordinates":  [ 6.1460053,46.1964874 ]
    },
    "properties": {
    "reseller_name":"Pharmacie des Philosophes",
    "reseller_full_address":"Bd. des philosophes 16 1205 Genève"
    }
  },
  {
    "type": "Feature",
    "geometry": {
       "type": "Point",
       "coordinates":  [ 6.1850451,46.2036215 ]
    },
    "properties": {
    "reseller_name":"Pharmacie Populaire SA Gradelle",
    "reseller_full_address":"Av. des Cavaliers 1 1224 Chêne-Bougeries"
    }
  },
  {
    "type": "Feature",
    "geometry": {
       "type": "Point",
       "coordinates":  [ 7.362911899999999,46.23162689999999 ]
    },
    "properties": {
    "reseller_name":"Pharmacie Machoud",
    "reseller_full_address":"Rue du Scex 2-4 1950 Sion"
    }
  },
  {
    "type": "Feature",
    "geometry": {
       "type": "Point",
       "coordinates":  [ 6.1440717,46.19306599999999 ]
    },
    "properties": {
    "reseller_name":"Pharmacie Populaire SA Plainpalais",
    "reseller_full_address":"Rue de Carouge 55 1205 Genève"
    }
  },
  {
    "type": "Feature",
    "geometry": {
       "type": "Point",
       "coordinates":  [ 6.1428758,46.1973976 ]
    },
    "properties": {
    "reseller_name":"Pharmacie Plus du Rond-Point",
    "reseller_full_address":"Rond Point de Plainpalais 6 1205 Genève"
    }
  },
  {
    "type": "Feature",
    "geometry": {
       "type": "Point",
       "coordinates":  [ 6.8886328,47.0557771 ]
    },
    "properties": {
    "reseller_name":"Pharmacie Plus du Val-de-Ruz SA",
    "reseller_full_address":"Rue du Centre 2 2052 Fontainemelon"
    }
  },
  {
    "type": "Feature",
    "geometry": {
       "type": "Point",
       "coordinates":  [ 6.1611275,46.2035422 ]
    },
    "properties": {
    "reseller_name":"Pharmacie du Soleil",
    "reseller_full_address":"rue de Montchoisy 34 1207 Genève"
    }
  },
  {
    "type": "Feature",
    "geometry": {
       "type": "Point",
       "coordinates":  [ 6.1432677,46.2069912 ]
    },
    "properties": {
    "reseller_name":"Pharmacie de Grenus SA",
    "reseller_full_address":"Place de Grenus 12 1201 Genève"
    }
  },
  {
    "type": "Feature",
    "geometry": {
       "type": "Point",
       "coordinates":  [ 7.597891699999999,47.5595972 ]
    },
    "properties": {
    "reseller_name":"Wettstein Apotheke AG",
    "reseller_full_address":"Wettsteinplatz 3 4058 Basel"
    }
  },
  {
    "type": "Feature",
    "geometry": {
       "type": "Point",
       "coordinates":  [ 6.153384099999999,46.1965394 ]
    },
    "properties": {
    "reseller_name":"Pharmacie Populaire SA Tranchées",
    "reseller_full_address":"Bd des Tranchées 24 1206 Genève"
    }
  },
  {
    "type": "Feature",
    "geometry": {
       "type": "Point",
       "coordinates":  [ 7.286521,46.473046 ]
    },
    "properties": {
    "reseller_name":"Drogerie von Grünigen AG",
    "reseller_full_address":"Promenade 20 3780 Gstaad"
    }
  },
  {
    "type": "Feature",
    "geometry": {
       "type": "Point",
       "coordinates":  [ 6.814601,46.9299044 ]
    },
    "properties": {
    "reseller_name":"Pharmacie du Château",
    "reseller_full_address":"Rue de la Gare 1 2022 Bevaix"
    }
  },
  {
    "type": "Feature",
    "geometry": {
       "type": "Point",
       "coordinates":  [ 6.124136399999999,46.21308579999999 ]
    },
    "properties": {
    "reseller_name":"Pharmacie Vieusseux",
    "reseller_full_address":"Avenue Ernest-Pictet 32 1203 Genève"
    }
  },
  {
    "type": "Feature",
    "geometry": {
       "type": "Point",
       "coordinates":  [ 7.472879799999999,46.309264 ]
    },
    "properties": {
    "reseller_name":"Amavita Bagnoud 10040",
    "reseller_full_address":"Route du Rawyl 32 3963 Crans-Montana"
    }
  },
  {
    "type": "Feature",
    "geometry": {
       "type": "Point",
       "coordinates":  [ 6.4020815,46.4766696 ]
    },
    "properties": {
    "reseller_name":"Sun Store Allaman SA 12054",
    "reseller_full_address":"Littoral Centre Coop 1165 Allaman"
    }
  },
  {
    "type": "Feature",
    "geometry": {
       "type": "Point",
       "coordinates":  [ 6.164872,46.2799044 ]
    },
    "properties": {
    "reseller_name":"Pharmacie des Colombières",
    "reseller_full_address":"Av. Adrien Lachenal 5 1290 Versoix"
    }
  },
  {
    "type": "Feature",
    "geometry": {
       "type": "Point",
       "coordinates":  [ 6.1430846,46.20916949999999 ]
    },
    "properties": {
    "reseller_name":"Amavita Métro-Shopping 10063",
    "reseller_full_address":"Rue du Mont-Blanc 30 1201 Genève"
    }
  },
  {
    "type": "Feature",
    "geometry": {
       "type": "Point",
       "coordinates":  [ 6.1991377,46.240232 ]
    },
    "properties": {
    "reseller_name":"Pharmacie Bleue SA",
    "reseller_full_address":"Route de Thonon 60 1222 Vésenaz"
    }
  },
  {
    "type": "Feature",
    "geometry": {
       "type": "Point",
       "coordinates":  [ 6.849441799999999,46.8498214 ]
    },
    "properties": {
    "reseller_name":"Pharmacieplus du Camus SA",
    "reseller_full_address":"Rue du Camus 2 1470 Estavayer-le-Lac"
    }
  },
  {
    "type": "Feature",
    "geometry": {
       "type": "Point",
       "coordinates":  [ 6.1110751,46.1945732 ]
    },
    "properties": {
    "reseller_name":"Coop Vitality Onex 21009",
    "reseller_full_address":"Centre commercial Coop 1213 Onex"
    }
  },
  {
    "type": "Feature",
    "geometry": {
       "type": "Point",
       "coordinates":  [ 6.6122951,46.5598853 ]
    },
    "properties": {
    "reseller_name":"Sun Store Romanel SA 12062",
    "reseller_full_address":"En Félezin 1032 Romanel-sur-Lausanne"
    }
  },
  {
    "type": "Feature",
    "geometry": {
       "type": "Point",
       "coordinates":  [ 7.585253199999999,47.0852497 ]
    },
    "properties": {
    "reseller_name":"Drogerie-Naturheilmittel Käser & Vögeli AG",
    "reseller_full_address":"Ersigenstrasse 2 3422 Kirchberg"
    }
  },
  {
    "type": "Feature",
    "geometry": {
       "type": "Point",
       "coordinates":  [ 6.580665799999999,46.9024922 ]
    },
    "properties": {
    "reseller_name":"Pharmacie Plus Centrale",
    "reseller_full_address":"Rue de Grenier 1 2114 Fleurier"
    }
  },
  {
    "type": "Feature",
    "geometry": {
       "type": "Point",
       "coordinates":  [ 6.6330401,46.5241497 ]
    },
    "properties": {
    "reseller_name":"Pharmacies BENU SA / Gamma",
    "reseller_full_address":"Place de la Riponne 10 1005 Lausanne"
    }
  },
  {
    "type": "Feature",
    "geometry": {
       "type": "Point",
       "coordinates":  [ 6.8420726,46.4634272 ]
    },
    "properties": {
    "reseller_name":"Pharmacie Saba",
    "reseller_full_address":"Centre Commercial Saint-Antoine 1800 Vevey"
    }
  },
  {
    "type": "Feature",
    "geometry": {
       "type": "Point",
       "coordinates":  [ 6.135744,46.2083637 ]
    },
    "properties": {
    "reseller_name":"Pharmacie Populaire SA Voltaire",
    "reseller_full_address":"Rue Voltaire 30 1201 Genève"
    }
  },
  {
    "type": "Feature",
    "geometry": {
       "type": "Point",
       "coordinates":  [ 6.640303899999999,46.7787793 ]
    },
    "properties": {
    "reseller_name":"Herboristerie Droguerie Hofer",
    "reseller_full_address":"Rue du Milieu 2 1400 Yverdon-les-Bains"
    }
  },
  {
    "type": "Feature",
    "geometry": {
       "type": "Point",
       "coordinates":  [ 6.1153464,46.1675653 ]
    },
    "properties": {
    "reseller_name":"Pharmacie Populaire SA Plan-Les-Ouates",
    "reseller_full_address":"Route de Saint Julien 176 1228 Plan-les-Ouates"
    }
  },
  {
    "type": "Feature",
    "geometry": {
       "type": "Point",
       "coordinates":  [ 7.252449400000001,47.3389461 ]
    },
    "properties": {
    "reseller_name":"Sun Store Bassecourt SA 12029",
    "reseller_full_address":"Rue de l´Abbé-Monnin 81 2854 Bassecourt"
    }
  },
  {
    "type": "Feature",
    "geometry": {
       "type": "Point",
       "coordinates":  [ 8.0175102,47.5095796 ]
    },
    "properties": {
    "reseller_name":"Storchen Apotheke",
    "reseller_full_address":"Hauptstrasse 26 5070 Frick"
    }
  },
  {
    "type": "Feature",
    "geometry": {
       "type": "Point",
       "coordinates":  [ 6.6598726,46.5111735 ]
    },
    "properties": {
    "reseller_name":"Sun Store Pully SA 12063",
    "reseller_full_address":"Place Neuve 2 1009 Pully"
    }
  },
  {
    "type": "Feature",
    "geometry": {
       "type": "Point",
       "coordinates":  [ 6.498393099999999,46.50889799999999 ]
    },
    "properties": {
    "reseller_name":"Amavita Centrale Morges 10001",
    "reseller_full_address":"Grand Rue 69 1110 Morges"
    }
  },
  {
    "type": "Feature",
    "geometry": {
       "type": "Point",
       "coordinates":  [ 6.149744399999999,46.2124871 ]
    },
    "properties": {
    "reseller_name":"Pharmacie Sun Store Genève Wilson 12099",
    "reseller_full_address":"Rue des pâquis 41 1201 Genève"
    }
  },
  {
    "type": "Feature",
    "geometry": {
       "type": "Point",
       "coordinates":  [ 7.0320076,46.8773039 ]
    },
    "properties": {
    "reseller_name":"Sun Store Avenches SA 12046",
    "reseller_full_address":"Centre Milavy 1580 Avenches"
    }
  },
  {
    "type": "Feature",
    "geometry": {
       "type": "Point",
       "coordinates":  [ 6.1912489,46.1957687 ]
    },
    "properties": {
    "reseller_name":"Pharmacie de Chêne-Bougeries",
    "reseller_full_address":"Rue de Chêne-Bougeries 38 1224 Chêne-Bougeries"
    }
  },
  {
    "type": "Feature",
    "geometry": {
       "type": "Point",
       "coordinates":  [ 6.1525639,46.1886901 ]
    },
    "properties": {
    "reseller_name":"Pharmacie des Crêts-Champel SNC",
    "reseller_full_address":"Ch. des Crêts de Champel  6 1206 Genève"
    }
  },
  {
    "type": "Feature",
    "geometry": {
       "type": "Point",
       "coordinates":  [ 8.3062917,47.0454855 ]
    },
    "properties": {
    "reseller_name":"Drogerie + Farben AG",
    "reseller_full_address":"Moosstrasse 18-20 6003 Luzern"
    }
  },
  {
    "type": "Feature",
    "geometry": {
       "type": "Point",
       "coordinates":  [ 6.144778,46.211528 ]
    },
    "properties": {
    "reseller_name":"Sun Store Genève Cygnes SA 12044",
    "reseller_full_address":"Rue de Lausanne 20 1201 Genève"
    }
  },
  {
    "type": "Feature",
    "geometry": {
       "type": "Point",
       "coordinates":  [ 6.7314238,46.5389817 ]
    },
    "properties": {
    "reseller_name":"Apotheke Amavita Savigny 10084",
    "reseller_full_address":"Place du Forum 1 1073 Savigny"
    }
  },
  {
    "type": "Feature",
    "geometry": {
       "type": "Point",
       "coordinates":  [ 6.8584444,46.9656197 ]
    },
    "properties": {
    "reseller_name":"Pharmacieplus de Colombier",
    "reseller_full_address":"Rue Haute 23a 2013 Colombier"
    }
  },
  {
    "type": "Feature",
    "geometry": {
       "type": "Point",
       "coordinates":  [ 6.119724799999999,46.1823115 ]
    },
    "properties": {
    "reseller_name":"Pharmacie du Grand-Lancy",
    "reseller_full_address":"Chemin des Courtillets 6 1212 Grand-Lancy"
    }
  },
  {
    "type": "Feature",
    "geometry": {
       "type": "Point",
       "coordinates":  [ 6.648053,46.5337265 ]
    },
    "properties": {
    "reseller_name":"Pharmacie Populaire  de la Sallaz",
    "reseller_full_address":"Rte d´Oron 4 1010 Lausanne"
    }
  },
  {
    "type": "Feature",
    "geometry": {
       "type": "Point",
       "coordinates":  [ 6.9861682,47.0134397 ]
    },
    "properties": {
    "reseller_name":"Pharmacie de Saint-Blaise",
    "reseller_full_address":"Grand Rue 11 2072 Saint-Blaise"
    }
  },
  {
    "type": "Feature",
    "geometry": {
       "type": "Point",
       "coordinates":  [ 6.233779699999999,46.38381099999999 ]
    },
    "properties": {
    "reseller_name":"Pharmacie Centrale Nyon",
    "reseller_full_address":"Rue de la Morâche 9 1260 Nyon"
    }
  },
  {
    "type": "Feature",
    "geometry": {
       "type": "Point",
       "coordinates":  [ 6.9524015,46.2535075 ]
    },
    "properties": {
    "reseller_name":"Sun Store Monthey M-Central SA 12011",
    "reseller_full_address":"Avenue de la Gare 36 1870 Monthey"
    }
  },
  {
    "type": "Feature",
    "geometry": {
       "type": "Point",
       "coordinates":  [ 6.1566613,46.2028129 ]
    },
    "properties": {
    "reseller_name":"Amavita Cardinaux 10042",
    "reseller_full_address":"Rue des eaux vives 1 1207 Genève"
    }
  },
  {
    "type": "Feature",
    "geometry": {
       "type": "Point",
       "coordinates":  [ 6.4948026,46.5114222 ]
    },
    "properties": {
    "reseller_name":"Pharmacie de la Gare de Morges",
    "reseller_full_address":"Promenade de Castellane 14 1110 Morges"
    }
  },
  {
    "type": "Feature",
    "geometry": {
       "type": "Point",
       "coordinates":  [ 6.830945199999999,47.1058112 ]
    },
    "properties": {
    "reseller_name":"Pharmacieplus du Versoix",
    "reseller_full_address":"Rue de L´industrie 1 2303 La Chaux-de-Fonds"
    }
  },
  {
    "type": "Feature",
    "geometry": {
       "type": "Point",
       "coordinates":  [ 6.204108,46.2532106 ]
    },
    "properties": {
    "reseller_name":"Pharmacie Amavita Collonge-Bellerive 10007",
    "reseller_full_address":"Route d´Hermance 130 1245 Collonge-Bellerive"
    }
  },
  {
    "type": "Feature",
    "geometry": {
       "type": "Point",
       "coordinates":  [ 8.5396266,47.37273 ]
    },
    "properties": {
    "reseller_name":"Müller Reformhaus Vitalshop AG",
    "reseller_full_address":"Rennweg 15 8001 Zürich"
    }
  },
  {
    "type": "Feature",
    "geometry": {
       "type": "Point",
       "coordinates":  [ 7.1515834,46.8026992 ]
    },
    "properties": {
    "reseller_name":"Pharmacie de la Gare",
    "reseller_full_address":"Av. de la Gare 4 1700 Fribourg"
    }
  },
  {
    "type": "Feature",
    "geometry": {
       "type": "Point",
       "coordinates":  [ 6.1402386,46.2204423 ]
    },
    "properties": {
    "reseller_name":"Pharmacie Populaire SA Nations Varembé",
    "reseller_full_address":"Pharmacie Populaire Varembé 1202 Genève"
    }
  },
  {
    "type": "Feature",
    "geometry": {
       "type": "Point",
       "coordinates":  [ 7.3558322,46.2288045 ]
    },
    "properties": {
    "reseller_name":"Pharmacie Sun Store Sion Métropole SA 12002",
    "reseller_full_address":"Avenue de France 14 - 20 1950 Sion"
    }
  },
  {
    "type": "Feature",
    "geometry": {
       "type": "Point",
       "coordinates":  [ 6.688367599999999,46.5054765 ]
    },
    "properties": {
    "reseller_name":"Sun Store Lutry SA 12057",
    "reseller_full_address":"Centre commercial Les Moulins 1095 Lutry"
    }
  },
  {
    "type": "Feature",
    "geometry": {
       "type": "Point",
       "coordinates":  [ 6.104716,46.1856246 ]
    },
    "properties": {
    "reseller_name":"DeltaPharm SA",
    "reseller_full_address":"Cité Générations 1213 Onex"
    }
  },
  {
    "type": "Feature",
    "geometry": {
       "type": "Point",
       "coordinates":  [ 6.1457793,46.1836463 ]
    },
    "properties": {
    "reseller_name":"Pharmacie de la Fontenette SA",
    "reseller_full_address":"Rue de la Fontenette  23 1227 Carouge"
    }
  },
  {
    "type": "Feature",
    "geometry": {
       "type": "Point",
       "coordinates":  [ 6.1409411,46.2034827 ]
    },
    "properties": {
    "reseller_name":"Pharmacie des Banques",
    "reseller_full_address":"Rue du Stand 62 1204 Genève"
    }
  },
  {
    "type": "Feature",
    "geometry": {
       "type": "Point",
       "coordinates":  [ 6.500054,46.5219453 ]
    },
    "properties": {
    "reseller_name":"Pharmacie du Crêt",
    "reseller_full_address":"chemin du Crêt 2 1110 Morges"
    }
  },
  {
    "type": "Feature",
    "geometry": {
       "type": "Point",
       "coordinates":  [ 6.6494748,46.7663835 ]
    },
    "properties": {
    "reseller_name":"Pharmacies BENU SA / Yverdon Sud",
    "reseller_full_address":"Route de Lausanne 10 1400 Yverdon-les-Bains"
    }
  },
  {
    "type": "Feature",
    "geometry": {
       "type": "Point",
       "coordinates":  [ 6.1474882,46.1920948 ]
    },
    "properties": {
    "reseller_name":"Pharma24 SA",
    "reseller_full_address":"Boulevard de la Cluse 38 1205 Genève"
    }
  },
  {
    "type": "Feature",
    "geometry": {
       "type": "Point",
       "coordinates":  [ 6.7705679,46.89295329999999 ]
    },
    "properties": {
    "reseller_name":"Amavita du Trèfle 10052",
    "reseller_full_address":"La Couronne 3 2024 Saint-Aubin-Sauges"
    }
  },
  {
    "type": "Feature",
    "geometry": {
       "type": "Point",
       "coordinates":  [ 6.125537500000001,46.2082637 ]
    },
    "properties": {
    "reseller_name":"Sun Store Genève Lyon SA 12074",
    "reseller_full_address":"Rue de Lyon 81 1203 Genève"
    }
  },
  {
    "type": "Feature",
    "geometry": {
       "type": "Point",
       "coordinates":  [ 7.154180299999999,46.804171 ]
    },
    "properties": {
    "reseller_name":"Sun Store Fribourg SA 12018",
    "reseller_full_address":"Rue de Romont 26 1700 Fribourg"
    }
  },
  {
    "type": "Feature",
    "geometry": {
       "type": "Point",
       "coordinates":  [ 7.077022899999999,46.1111592 ]
    },
    "properties": {
    "reseller_name":"Pharmacies BENU SA / Martigny Quartz",
    "reseller_full_address":"Avenue de Fully 63 1920 Martigny"
    }
  },
  {
    "type": "Feature",
    "geometry": {
       "type": "Point",
       "coordinates":  [ 6.842986,46.4630505 ]
    },
    "properties": {
    "reseller_name":"Pharmacie de la Gare de Vevey",
    "reseller_full_address":"Place de la Gare 3 1800 Vevey"
    }
  },
  {
    "type": "Feature",
    "geometry": {
       "type": "Point",
       "coordinates":  [ 7.3900713,46.2622902 ]
    },
    "properties": {
    "reseller_name":"Pharmacie Les Crêtes",
    "reseller_full_address":"Route d´Ayent 1971 Grimisuat"
    }
  },
  {
    "type": "Feature",
    "geometry": {
       "type": "Point",
       "coordinates":  [ 6.6464314,46.5325531 ]
    },
    "properties": {
    "reseller_name":"Pharmacies BENU SA / Etoile",
    "reseller_full_address":"Place de la Sallaz 3 1010 Lausanne"
    }
  },
  {
    "type": "Feature",
    "geometry": {
       "type": "Point",
       "coordinates":  [ 6.6302178,46.5224156 ]
    },
    "properties": {
    "reseller_name":"Pharmacie Amavita St. Laurent 10003",
    "reseller_full_address":"Rue Haldimand 14 1003 Lausanne"
    }
  },
  {
    "type": "Feature",
    "geometry": {
       "type": "Point",
       "coordinates":  [ 7.151878699999999,46.80294749999999 ]
    },
    "properties": {
    "reseller_name":"Pharmacies BENU SA / Fribourg-Centre",
    "reseller_full_address":"Avenue de la Gare 10 1700 Fribourg"
    }
  },
  {
    "type": "Feature",
    "geometry": {
       "type": "Point",
       "coordinates":  [ 6.651786,46.52713139999999 ]
    },
    "properties": {
    "reseller_name":"Sun Store Lausanne Chailly SA 12053",
    "reseller_full_address":"Chemin de Rovéréaz 5 1012 Lausanne"
    }
  },
  {
    "type": "Feature",
    "geometry": {
       "type": "Point",
       "coordinates":  [ 6.630096399999999,46.52189389999999 ]
    },
    "properties": {
    "reseller_name":"Sun Store Lausanne Grand-Pont SA 12075",
    "reseller_full_address":"Rue du Grand Pont 18 1003 Lausanne"
    }
  },
  {
    "type": "Feature",
    "geometry": {
       "type": "Point",
       "coordinates":  [ 7.0753005,46.10290089999999 ]
    },
    "properties": {
    "reseller_name":"Pharmacie Werlen SA",
    "reseller_full_address":"Avenue de la gare 22 1920 Martigny"
    }
  },
  {
    "type": "Feature",
    "geometry": {
       "type": "Point",
       "coordinates":  [ 7.1229457,46.7981586 ]
    },
    "properties": {
    "reseller_name":"Sun Store Villars-sur-Glâne SA 12020",
    "reseller_full_address":"Centre Fribourg Sud 1752 Villars-sur-Glâne"
    }
  },
  {
    "type": "Feature",
    "geometry": {
       "type": "Point",
       "coordinates":  [ 6.6333652,46.5142727 ]
    },
    "properties": {
    "reseller_name":"Pharmacie 24 SA",
    "reseller_full_address":"Avenue de Montchoisi 3 1006 Lausanne"
    }
  },
  {
    "type": "Feature",
    "geometry": {
       "type": "Point",
       "coordinates":  [ 6.1313181,46.2003316 ]
    },
    "properties": {
    "reseller_name":"Amavita Carl-Vogt 10013",
    "reseller_full_address":"Bd Carl-Vogt 18 1205 Genève"
    }
  },
  {
    "type": "Feature",
    "geometry": {
       "type": "Point",
       "coordinates":  [ 6.201628899999999,46.1926183 ]
    },
    "properties": {
    "reseller_name":"Sun Store Thônex SA 12071",
    "reseller_full_address":"Rue de Genève 106 1226 Thônex"
    }
  },
  {
    "type": "Feature",
    "geometry": {
       "type": "Point",
       "coordinates":  [ 6.9470179,46.2666516 ]
    },
    "properties": {
    "reseller_name":"Pharmacie des Puits SA",
    "reseller_full_address":"Chemin des Vergers 3 1868 Collombey-Muraz"
    }
  },
  {
    "type": "Feature",
    "geometry": {
       "type": "Point",
       "coordinates":  [ 7.4056447,46.2334172 ]
    },
    "properties": {
    "reseller_name":"Pharmacie Plus de Bramois SA",
    "reseller_full_address":"Vieux-Village 14 1967 Bramois"
    }
  },
  {
    "type": "Feature",
    "geometry": {
       "type": "Point",
       "coordinates":  [ 6.2319833,46.3847232 ]
    },
    "properties": {
    "reseller_name":"Amavita Cortot 10082",
    "reseller_full_address":"Av. A.Cortot 7A 1260 Nyon"
    }
  },
  {
    "type": "Feature",
    "geometry": {
       "type": "Point",
       "coordinates":  [ 6.5574911,46.51058250000001 ]
    },
    "properties": {
    "reseller_name":"Pharmacie de St-Sulpice / Henri Golaz & Fils SA",
    "reseller_full_address":"Rue du Centre 68 1025 St-Sulpice"
    }
  },
  {
    "type": "Feature",
    "geometry": {
       "type": "Point",
       "coordinates":  [ 6.7475121,47.0565435 ]
    },
    "properties": {
    "reseller_name":"Pharmacie du Casino Le Locle SA",
    "reseller_full_address":"Rue D.-Jeanrichard 39 2400 Le Locle"
    }
  },
  {
    "type": "Feature",
    "geometry": {
       "type": "Point",
       "coordinates":  [ 7.1511057,46.80291200000001 ]
    },
    "properties": {
    "reseller_name":"Pharmacies BENU SA / Fribourg Gare CFF",
    "reseller_full_address":"Place de la Gare 1 1700 Fribourg"
    }
  },
  {
    "type": "Feature",
    "geometry": {
       "type": "Point",
       "coordinates":  [ 6.6387922,46.78010099999999 ]
    },
    "properties": {
    "reseller_name":"Pharmacies BENU SA / Bloch",
    "reseller_full_address":"Rue du Lac 40 1400 Yverdon-les-Bains"
    }
  },
  {
    "type": "Feature",
    "geometry": {
       "type": "Point",
       "coordinates":  [ 7.126726199999999,46.815768 ]
    },
    "properties": {
    "reseller_name":"Pharmacie de Givisiez",
    "reseller_full_address":"Route Jo-Siffert 4 1762 Givisiez"
    }
  },
  {
    "type": "Feature",
    "geometry": {
       "type": "Point",
       "coordinates":  [ 6.1945703,46.1965636 ]
    },
    "properties": {
    "reseller_name":"Sun Store Chêne-Bourg SA 12040",
    "reseller_full_address":"Avenue de Bel-Air 12 1225 Chêne-Bourg"
    }
  },
  {
    "type": "Feature",
    "geometry": {
       "type": "Point",
       "coordinates":  [ 6.2611593,46.423141 ]
    },
    "properties": {
    "reseller_name":" Pharmacie  Amavita Gland 10068",
    "reseller_full_address":"Rue du Borgeaud 1a 1196 Gland"
    }
  },
  {
    "type": "Feature",
    "geometry": {
       "type": "Point",
       "coordinates":  [ 6.4948101,46.50965799999999 ]
    },
    "properties": {
    "reseller_name":"Sun Store Morges Migros 12080",
    "reseller_full_address":"Rue de la gare 19 1110 Morges"
    }
  },
  {
    "type": "Feature",
    "geometry": {
       "type": "Point",
       "coordinates":  [ 6.507054699999999,46.6142639 ]
    },
    "properties": {
    "reseller_name":"Pharmacie La Croisée",
    "reseller_full_address":"Grand Rue 1 1304 Cossonay"
    }
  },
  {
    "type": "Feature",
    "geometry": {
       "type": "Point",
       "coordinates":  [ 7.1523452,46.7996204 ]
    },
    "properties": {
    "reseller_name":"Pharmacies BENU SA / Pérolles",
    "reseller_full_address":"Boulevard de Pérolles 23-21a 1700 Fribourg"
    }
  },
  {
    "type": "Feature",
    "geometry": {
       "type": "Point",
       "coordinates":  [ 6.2753532,46.4192002 ]
    },
    "properties": {
    "reseller_name":"Sun Store Gland SA 12058",
    "reseller_full_address":"Rue des Alpes 2 1196 Gland"
    }
  },
  {
    "type": "Feature",
    "geometry": {
       "type": "Point",
       "coordinates":  [ 7.3592444,46.227504 ]
    },
    "properties": {
    "reseller_name":"Sun Store Sion Gare CFF SA 12003",
    "reseller_full_address":"Place de la Gare 1 1950 Sion"
    }
  },
  {
    "type": "Feature",
    "geometry": {
       "type": "Point",
       "coordinates":  [ 6.3123465,46.5497473 ]
    },
    "properties": {
    "reseller_name":"Pharmacies BENU SA / Biere",
    "reseller_full_address":"Le centre 1145 Bière"
    }
  },
  {
    "type": "Feature",
    "geometry": {
       "type": "Point",
       "coordinates":  [ 8.543623,47.3733563 ]
    },
    "properties": {
    "reseller_name":"Medbase Apotheke Zürich Niederdorf",
    "reseller_full_address":"Niederdorfstrasse 11 8001 Zürich"
    }
  },
  {
    "type": "Feature",
    "geometry": {
       "type": "Point",
       "coordinates":  [ 6.1320202,46.2051695 ]
    },
    "properties": {
    "reseller_name":"Pharmacie des Tilleuls",
    "reseller_full_address":"Rue de St-Jean  56 1203 Genève"
    }
  },
  {
    "type": "Feature",
    "geometry": {
       "type": "Point",
       "coordinates":  [ 7.360804699999999,46.2331911 ]
    },
    "properties": {
    "reseller_name":"Pharmacie de Quay",
    "reseller_full_address":"Rue du Grand-Pont 2 1950 Sion"
    }
  },
  {
    "type": "Feature",
    "geometry": {
       "type": "Point",
       "coordinates":  [ 6.613657,46.5159732 ]
    },
    "properties": {
    "reseller_name":"Pharmacie de la Batelière",
    "reseller_full_address":"Avenue de Cour 105 1007 Lausanne"
    }
  },
  {
    "type": "Feature",
    "geometry": {
       "type": "Point",
       "coordinates":  [ 6.1450527,46.1972128 ]
    },
    "properties": {
    "reseller_name":"Pharmacie St-Léger SA",
    "reseller_full_address":"Boulevard des Philosophes 15 1205 Genève"
    }
  },
  {
    "type": "Feature",
    "geometry": {
       "type": "Point",
       "coordinates":  [ 7.3075899,47.3607224 ]
    },
    "properties": {
    "reseller_name":"Sun Store Delémont SA 12028",
    "reseller_full_address":"MM Délémont 2800 Delémont"
    }
  },
  {
    "type": "Feature",
    "geometry": {
       "type": "Point",
       "coordinates":  [ 6.6325588,46.5148363 ]
    },
    "properties": {
    "reseller_name":"Pharmacies BENU SA / Closelet",
    "reseller_full_address":"Chemin du Closelet 1 1006 Lausanne"
    }
  },
  {
    "type": "Feature",
    "geometry": {
       "type": "Point",
       "coordinates":  [ 6.6355254,46.78131579999999 ]
    },
    "properties": {
    "reseller_name":"Sun Store Yverdon SA 12051",
    "reseller_full_address":"Rue de Neuchâtel 3 1400 Yverdon-les-Bains"
    }
  },
  {
    "type": "Feature",
    "geometry": {
       "type": "Point",
       "coordinates":  [ 6.625884699999999,46.5184326 ]
    },
    "properties": {
    "reseller_name":"Pharmacie de Ruchonnet",
    "reseller_full_address":"Avenue de Ruchonnet 17 1003 Lausanne"
    }
  },
  {
    "type": "Feature",
    "geometry": {
       "type": "Point",
       "coordinates":  [ 6.6307891,46.5185653 ]
    },
    "properties": {
    "reseller_name":"Pharmacie Luc Geny",
    "reseller_full_address":"rue du Petit-Chêne 9BIS 1003 Lausanne"
    }
  },
  {
    "type": "Feature",
    "geometry": {
       "type": "Point",
       "coordinates":  [ 6.5413936,46.53395709999999 ]
    },
    "properties": {
    "reseller_name":"Pharmacie Plus d'Echandens /Pharmaetic SA",
    "reseller_full_address":"Place de Saugey 6 1026 Echandens"
    }
  },
  {
    "type": "Feature",
    "geometry": {
       "type": "Point",
       "coordinates":  [ 6.1397472,46.200573 ]
    },
    "properties": {
    "reseller_name":"Pharmacie Populaire SA Mail",
    "reseller_full_address":"Avenue du mail 2 1205 Genève"
    }
  },
  {
    "type": "Feature",
    "geometry": {
       "type": "Point",
       "coordinates":  [ 6.9290515,46.9905676 ]
    },
    "properties": {
    "reseller_name":"Pharmacie du Soleil",
    "reseller_full_address":"rue du Seyon 1 2000 Neuchâtel"
    }
  },
  {
    "type": "Feature",
    "geometry": {
       "type": "Point",
       "coordinates":  [ 6.602523499999999,46.52743659999999 ]
    },
    "properties": {
    "reseller_name":"Sun Store Prilly Malley SA 12065",
    "reseller_full_address":"M Centre Malley Lumières 1008 Prilly"
    }
  },
  {
    "type": "Feature",
    "geometry": {
       "type": "Point",
       "coordinates":  [ 6.1959218,46.1939109 ]
    },
    "properties": {
    "reseller_name":"Pharmacie Populaire SA Trois-Chêne",
    "reseller_full_address":"Rue de Genève 33 1225 Chêne-Bourg"
    }
  },
  {
    "type": "Feature",
    "geometry": {
       "type": "Point",
       "coordinates":  [ 6.6323954,46.5242514 ]
    },
    "properties": {
    "reseller_name":"Sun Store Lausanne Riponne SA 12047",
    "reseller_full_address":"Angle Riponne-Haldimand 1 1003 Lausanne"
    }
  },
  {
    "type": "Feature",
    "geometry": {
       "type": "Point",
       "coordinates":  [ -108.4618335,37.2308729 ]
    },
    "properties": {
    "reseller_name":"La boutique de l'Apothicaire",
    "reseller_full_address":"Centre Mesa Verde A 1893 Muraz"
    }
  },
  {
    "type": "Feature",
    "geometry": {
       "type": "Point",
       "coordinates":  [ 6.6372488,46.78032349999999 ]
    },
    "properties": {
    "reseller_name":"Pharmacies BENU SA / Bel-Air",
    "reseller_full_address":"Place Bel-Air 2 1400 Yverdon-les-Bains"
    }
  },
  {
    "type": "Feature",
    "geometry": {
       "type": "Point",
       "coordinates":  [ 6.1622157,46.20410330000001 ]
    },
    "properties": {
    "reseller_name":"Pharmacie de Montchoisy",
    "reseller_full_address":"Rue de Montchoisy 48 1207 Genève"
    }
  },
  {
    "type": "Feature",
    "geometry": {
       "type": "Point",
       "coordinates":  [ 7.1504752,46.7802057 ]
    },
    "properties": {
    "reseller_name":"Pharmacie de la Jonction",
    "reseller_full_address":"Rte de Fribourg 15 1723 Marly"
    }
  },
  {
    "type": "Feature",
    "geometry": {
       "type": "Point",
       "coordinates":  [ 6.621563399999999,46.7881246 ]
    },
    "properties": {
    "reseller_name":"Sun Store Montagny SA 12052",
    "reseller_full_address":"En Chamard 14 1442 Montagny-près-Yverdon"
    }
  },
  {
    "type": "Feature",
    "geometry": {
       "type": "Point",
       "coordinates":  [ 6.1311183,46.2161139 ]
    },
    "properties": {
    "reseller_name":"Pharmacie Plus du Grand-Pré  SA",
    "reseller_full_address":"Rue du Grand-Pré 76 1202 Genève"
    }
  },
  {
    "type": "Feature",
    "geometry": {
       "type": "Point",
       "coordinates":  [ 7.172057499999998,46.7455922 ]
    },
    "properties": {
    "reseller_name":"Pharmacies BENU SA / Le Mouret",
    "reseller_full_address":"Route du Pafuet 1 1724 Le Mouret"
    }
  },
  {
    "type": "Feature",
    "geometry": {
       "type": "Point",
       "coordinates":  [ 7.2576153,46.2112467 ]
    },
    "properties": {
    "reseller_name":"Sun Store Ardon SA 12016",
    "reseller_full_address":"Route du Simplon 46 1957 Ardon"
    }
  },
  {
    "type": "Feature",
    "geometry": {
       "type": "Point",
       "coordinates":  [ 7.077093899999999,46.1035184 ]
    },
    "properties": {
    "reseller_name":"Pharmacies BENU SA / Poste",
    "reseller_full_address":"Rue de la Poste 3 1920 Martigny"
    }
  },
  {
    "type": "Feature",
    "geometry": {
       "type": "Point",
       "coordinates":  [ 6.9474562,46.261072 ]
    },
    "properties": {
    "reseller_name":"Sun Store Monthey Manor SA 12004",
    "reseller_full_address":"Centre Manor Monthey 1870 Monthey"
    }
  },
  {
    "type": "Feature",
    "geometry": {
       "type": "Point",
       "coordinates":  [ 6.0793773,46.2377131 ]
    },
    "properties": {
    "reseller_name":"Amavita Champs-Fréchets 10070",
    "reseller_full_address":"Promenade des Artisans 34 1217 Meyrin"
    }
  },
  {
    "type": "Feature",
    "geometry": {
       "type": "Point",
       "coordinates":  [ 7.2429533,47.1330143 ]
    },
    "properties": {
    "reseller_name":"Sun Store Bienne Gare CFF 12221",
    "reseller_full_address":"Bahnhofplatz 4 2502 Biel"
    }
  },
  {
    "type": "Feature",
    "geometry": {
       "type": "Point",
       "coordinates":  [ 6.138452099999999,46.19207429999999 ]
    },
    "properties": {
    "reseller_name":"Pharmacie Sofi Care",
    "reseller_full_address":"Rue de la Caroline 1 1227 Les Acacias"
    }
  },
  {
    "type": "Feature",
    "geometry": {
       "type": "Point",
       "coordinates":  [ 7.0127624,46.8666761 ]
    },
    "properties": {
    "reseller_name":"Amavita Domdidier 10012",
    "reseller_full_address":"Rue Centrale 21 1564 Domdidier"
    }
  },
  {
    "type": "Feature",
    "geometry": {
       "type": "Point",
       "coordinates":  [ 6.1503254,46.1957292 ]
    },
    "properties": {
    "reseller_name":"Pharmacie Amavita Place Claparède 10095",
    "reseller_full_address":"Rue Emile Yung 1 1205 Genève"
    }
  },
  {
    "type": "Feature",
    "geometry": {
       "type": "Point",
       "coordinates":  [ 6.6331481,46.5191107 ]
    },
    "properties": {
    "reseller_name":"Sun Store Lausanne St-François Poste SA 12076",
    "reseller_full_address":"Place St-François 15 1003 Lausanne"
    }
  },
  {
    "type": "Feature",
    "geometry": {
       "type": "Point",
       "coordinates":  [ 7.247452,47.14028649999999 ]
    },
    "properties": {
    "reseller_name":"Amavita Apotheke Stern 10230",
    "reseller_full_address":"Collègegasse 17 2500 Biel"
    }
  },
  {
    "type": "Feature",
    "geometry": {
       "type": "Point",
       "coordinates":  [ 6.743589099999999,46.7985134 ]
    },
    "properties": {
    "reseller_name":"Pharmacie des Vergers",
    "reseller_full_address":"Rue des Vergers 7 1462 Yvonand"
    }
  },
  {
    "type": "Feature",
    "geometry": {
       "type": "Point",
       "coordinates":  [ 8.6258353,47.3307058 ]
    },
    "properties": {
    "reseller_name":"Drogerie Ritzmann",
    "reseller_full_address":"Dorfstrasse 65 8126 Zumikon"
    }
  },
  {
    "type": "Feature",
    "geometry": {
       "type": "Point",
       "coordinates":  [ 8.7193758,47.4991237 ]
    },
    "properties": {
    "reseller_name":"Medbase Apotheken AG Lancy Pont-Rouge",
    "reseller_full_address":"Schützenstrasse 3 8400 Winterthur"
    }
  },
  {
    "type": "Feature",
    "geometry": {
       "type": "Point",
       "coordinates":  [ 6.843116299999999,46.4598007 ]
    },
    "properties": {
    "reseller_name":"Pharmacie du Marché",
    "reseller_full_address":"Grand Place 2 1800 Vevey"
    }
  },
  {
    "type": "Feature",
    "geometry": {
       "type": "Point",
       "coordinates":  [ 6.5761586,46.5363964 ]
    },
    "properties": {
    "reseller_name":"Sun Store Ecublens Croset SA 12048",
    "reseller_full_address":"Avenue Tir Fédéral 14 1024 Ecublens"
    }
  },
  {
    "type": "Feature",
    "geometry": {
       "type": "Point",
       "coordinates":  [ 6.1295901,46.2131852 ]
    },
    "properties": {
    "reseller_name":"Pharmacie Bertrand",
    "reseller_full_address":"Avenue Wendt 60 1203 Genève"
    }
  },
  {
    "type": "Feature",
    "geometry": {
       "type": "Point",
       "coordinates":  [ 6.8571564,46.4576001 ]
    },
    "properties": {
    "reseller_name":"Pharmacies BENU SA / Tour-de-Peilz",
    "reseller_full_address":"Avenue des Alpes 66 1814 La Tour-de-Peilz"
    }
  },
  {
    "type": "Feature",
    "geometry": {
       "type": "Point",
       "coordinates":  [ 6.638830899999999,46.51916019999999 ]
    },
    "properties": {
    "reseller_name":"Pharmacies BENU SA / Etraz",
    "reseller_full_address":"Rue Etraz 12 1003 Lausanne"
    }
  },
  {
    "type": "Feature",
    "geometry": {
       "type": "Point",
       "coordinates":  [ 6.222156000000001,46.3898464 ]
    },
    "properties": {
    "reseller_name":"Pharmacieplus du Forum",
    "reseller_full_address":"route de signy 45 1260 Nyon"
    }
  },
  {
    "type": "Feature",
    "geometry": {
       "type": "Point",
       "coordinates":  [ 6.2617951,46.4238133 ]
    },
    "properties": {
    "reseller_name":"Pharmacies BENU SA / Gland",
    "reseller_full_address":"Rue Borgeaud 3a 1196 Gland"
    }
  },
  {
    "type": "Feature",
    "geometry": {
       "type": "Point",
       "coordinates":  [ 6.2298735,46.3805092 ]
    },
    "properties": {
    "reseller_name":"Sun Store Nyon Bourg 12036",
    "reseller_full_address":"Galerie du Bourg 1260 Nyon"
    }
  },
  {
    "type": "Feature",
    "geometry": {
       "type": "Point",
       "coordinates":  [ 7.511248999999999,46.282353 ]
    },
    "properties": {
    "reseller_name":"Apotheke Sun Store Sierre Manor SA 12005",
    "reseller_full_address":"Centre Manor 3960 Sierre"
    }
  },
  {
    "type": "Feature",
    "geometry": {
       "type": "Point",
       "coordinates":  [ 7.0600214,46.62504310000001 ]
    },
    "properties": {
    "reseller_name":"Sun Store Bulle Coop SA 12067",
    "reseller_full_address":"Route de Riaz 50 1630 Bulle"
    }
  },
  {
    "type": "Feature",
    "geometry": {
       "type": "Point",
       "coordinates":  [ 6.840319399999999,46.4638082 ]
    },
    "properties": {
    "reseller_name":"Sun Store Vevey SA 12056",
    "reseller_full_address":"Avenue Général-Guisan 17 1800 Vevey"
    }
  },
  {
    "type": "Feature",
    "geometry": {
       "type": "Point",
       "coordinates":  [ 6.953487399999999,46.26478100000001 ]
    },
    "properties": {
    "reseller_name":"Sun Store Collombey SA 12010",
    "reseller_full_address":"Centre Coop Parc du Rhône 1868 Collombey-Muraz"
    }
  },
  {
    "type": "Feature",
    "geometry": {
       "type": "Point",
       "coordinates":  [ 6.8910108,46.9878645 ]
    },
    "properties": {
    "reseller_name":"Pharmacie Plus de la Grand-Rue",
    "reseller_full_address":"Grand Rue 42 2034 Peseux"
    }
  },
  {
    "type": "Feature",
    "geometry": {
       "type": "Point",
       "coordinates":  [ 6.8006674,46.66778 ]
    },
    "properties": {
    "reseller_name":"Sun Store Moudon 12064",
    "reseller_full_address":"Avenue de Préville 1C 1510 Moudon"
    }
  },
  {
    "type": "Feature",
    "geometry": {
       "type": "Point",
       "coordinates":  [ 6.909998600000001,46.9882144 ]
    },
    "properties": {
    "reseller_name":"Pharmacie du Vauseyon",
    "reseller_full_address":"Rue des Poudrières 137 2000 Neuchâtel"
    }
  },
  {
    "type": "Feature",
    "geometry": {
       "type": "Point",
       "coordinates":  [ 6.552420199999999,46.5492875 ]
    },
    "properties": {
    "reseller_name":"Sun Store Bussigny SA 12085",
    "reseller_full_address":"Rue de la gare 19 1030 Bussigny-près-Lausanne"
    }
  },
  {
    "type": "Feature",
    "geometry": {
       "type": "Point",
       "coordinates":  [ 6.567070600000001,46.53425900000001 ]
    },
    "properties": {
    "reseller_name":"Pharmacie Amavita Croset 10006",
    "reseller_full_address":"Chemin du Croset 1 1024 Ecublens"
    }
  },
  {
    "type": "Feature",
    "geometry": {
       "type": "Point",
       "coordinates":  [ 8.252442799999999,47.4934023 ]
    },
    "properties": {
    "reseller_name":"Drogerie Zumsteg",
    "reseller_full_address":"Bahnhofstrasse 7 5300 Turgi"
    }
  },
  {
    "type": "Feature",
    "geometry": {
       "type": "Point",
       "coordinates":  [ 6.9288438,46.9919694 ]
    },
    "properties": {
    "reseller_name":"Amavita Seyon 10016",
    "reseller_full_address":"Rue du Seyon 14 2001 Neuchâtel 1 "
    }
  },
  {
    "type": "Feature",
    "geometry": {
       "type": "Point",
       "coordinates":  [ 6.137563099999999,46.1919459 ]
    },
    "properties": {
    "reseller_name":"Amavita Acacias 10064",
    "reseller_full_address":"Rte des Acacias 8 1227 Les Acacias"
    }
  },
  {
    "type": "Feature",
    "geometry": {
       "type": "Point",
       "coordinates":  [ 6.230407599999999,46.1928383 ]
    },
    "properties": {
    "reseller_name":"Apotheke Amavita Chêne-Bourg 10073",
    "reseller_full_address":"Rue de Genève 16 1225 Chêne-Bourg"
    }
  },
  {
    "type": "Feature",
    "geometry": {
       "type": "Point",
       "coordinates":  [ 7.007772,47.011913 ]
    },
    "properties": {
    "reseller_name":"Sun Store Marin Centre SA 12023",
    "reseller_full_address":"Rue Fleur de Lys  26 2074 Marin-Epagnier"
    }
  },
  {
    "type": "Feature",
    "geometry": {
       "type": "Point",
       "coordinates":  [ 7.223247400000001,46.0968129 ]
    },
    "properties": {
    "reseller_name":"Pharmacie Amavita Verbier 10089",
    "reseller_full_address":"Immeuble \"les Arcades\" 1936 Verbier"
    }
  },
  {
    "type": "Feature",
    "geometry": {
       "type": "Point",
       "coordinates":  [ 6.236409,46.3841241 ]
    },
    "properties": {
    "reseller_name":"Amavita Gare Nyon 10035",
    "reseller_full_address":"Place de la gare 7 1260 Nyon"
    }
  },
  {
    "type": "Feature",
    "geometry": {
       "type": "Point",
       "coordinates":  [ 6.661226,46.542901 ]
    },
    "properties": {
    "reseller_name":"Pharmacies BENU SA / Biopôle",
    "reseller_full_address":"Route de la Corniche 2 1066 Epalinges"
    }
  },
  {
    "type": "Feature",
    "geometry": {
       "type": "Point",
       "coordinates":  [ 6.1260746,46.2243964 ]
    },
    "properties": {
    "reseller_name":"Pharmacie du Petit-Saconnex",
    "reseller_full_address":"Ch. de la Tourelle 4 1211 Genève 19 "
    }
  },
  {
    "type": "Feature",
    "geometry": {
       "type": "Point",
       "coordinates":  [ 6.131348300000001,46.2085772 ]
    },
    "properties": {
    "reseller_name":"Pharmacie de l'île Verte",
    "reseller_full_address":"Rue de Lyon 59 1203 Genève"
    }
  },
  {
    "type": "Feature",
    "geometry": {
       "type": "Point",
       "coordinates":  [ 9.4698161,47.4793828 ]
    },
    "properties": {
    "reseller_name":"Drogerie Amhof",
    "reseller_full_address":"Thannstrasse 2 9403 Goldach"
    }
  },
  {
    "type": "Feature",
    "geometry": {
       "type": "Point",
       "coordinates":  [ 7.0583866,46.6213262 ]
    },
    "properties": {
    "reseller_name":"Pharmacie Levant-Gare SA",
    "reseller_full_address":"Route de Riaz 6 1630 Bulle"
    }
  },
  {
    "type": "Feature",
    "geometry": {
       "type": "Point",
       "coordinates":  [ 7.3620224,46.2314178 ]
    },
    "properties": {
    "reseller_name":"Sun Store Sion Midi SA 12012",
    "reseller_full_address":"Place du Midi 40 1950 Sion"
    }
  },
  {
    "type": "Feature",
    "geometry": {
       "type": "Point",
       "coordinates":  [ 6.944359800000001,46.9952525 ]
    },
    "properties": {
    "reseller_name":"Coop Vitality Maladière 21004",
    "reseller_full_address":"La Maladière Centre 2000 Neuchâtel"
    }
  },
  {
    "type": "Feature",
    "geometry": {
       "type": "Point",
       "coordinates":  [ 6.254465100000001,46.4237927 ]
    },
    "properties": {
    "reseller_name":"Coop Vitality Vich 21016",
    "reseller_full_address":"Chemin de la Bichette 4 1267 Vich"
    }
  },
  {
    "type": "Feature",
    "geometry": {
       "type": "Point",
       "coordinates":  [ 6.1229437,46.2079628 ]
    },
    "properties": {
    "reseller_name":"Pharmacie Victoria Charmilles",
    "reseller_full_address":"Promenade de l´Europe 11 1203 Genève"
    }
  },
  {
    "type": "Feature",
    "geometry": {
       "type": "Point",
       "coordinates":  [ 6.9370742,46.3171884 ]
    },
    "properties": {
    "reseller_name":"Sun Store Aigle SA 12017",
    "reseller_full_address":"MMM Chablais Centre Aigle 1860 Aigle"
    }
  },
  {
    "type": "Feature",
    "geometry": {
       "type": "Point",
       "coordinates":  [ 6.6609989,46.5110323 ]
    },
    "properties": {
    "reseller_name":"Pharmacie de la Clergère SA",
    "reseller_full_address":"Ch. Pré-de-la-Tour 10 1009 Pully"
    }
  },
  {
    "type": "Feature",
    "geometry": {
       "type": "Point",
       "coordinates":  [ 6.455716799999999,46.48186219999999 ]
    },
    "properties": {
    "reseller_name":"Sun Store Lausanne Gare CFF SA 12037",
    "reseller_full_address":"Bâtiment CFF Quai 1 1003 Lausanne"
    }
  },
  {
    "type": "Feature",
    "geometry": {
       "type": "Point",
       "coordinates":  [ 6.8273056,47.1000474 ]
    },
    "properties": {
    "reseller_name":"Sun Store La Chaux-de-Fonds Métropole SA 12025",
    "reseller_full_address":"Rue Daniel-Jeanrichard 23 2300 La Chaux-de-Fonds"
    }
  },
  {
    "type": "Feature",
    "geometry": {
       "type": "Point",
       "coordinates":  [ 8.9506861,46.0054421 ]
    },
    "properties": {
    "reseller_name":"Sun Store Lugano Peri SA 12500",
    "reseller_full_address":"Via Pietro Peri 5 6900 Lugano"
    }
  },
  {
    "type": "Feature",
    "geometry": {
       "type": "Point",
       "coordinates":  [ 6.836951999999999,46.9499415 ]
    },
    "properties": {
    "reseller_name":"Pharmacie Plus D'Herborence Sàrl",
    "reseller_full_address":"Rue Oscsar-Huguenin 23 2017 Boudry"
    }
  },
  {
    "type": "Feature",
    "geometry": {
       "type": "Point",
       "coordinates":  [ 6.6376728,46.5176771 ]
    },
    "properties": {
    "reseller_name":"Amavita Théâtre 10029",
    "reseller_full_address":"Avenue Georgette 4 1003 Lausanne"
    }
  },
  {
    "type": "Feature",
    "geometry": {
       "type": "Point",
       "coordinates":  [ 6.741652699999999,46.8007393 ]
    },
    "properties": {
    "reseller_name":"Pharmacie du Vieux Collège",
    "reseller_full_address":"Rue de l´ancien collège 1 1462 Yvonand"
    }
  },
  {
    "type": "Feature",
    "geometry": {
       "type": "Point",
       "coordinates":  [ 7.1485753,46.7830077 ]
    },
    "properties": {
    "reseller_name":"Amavita du Grand-Pré 10045",
    "reseller_full_address":"Impasse du Nouveau Marché 1 1723 Marly"
    }
  },
  {
    "type": "Feature",
    "geometry": {
       "type": "Point",
       "coordinates":  [ 7.529615600000001,46.2923574 ]
    },
    "properties": {
    "reseller_name":"Pharmacies BENU SA / Bonvin Sierre",
    "reseller_full_address":"Avenue général Guisan 30 3960 Sierre"
    }
  },
  {
    "type": "Feature",
    "geometry": {
       "type": "Point",
       "coordinates":  [ 7.508399499999999,46.265407 ]
    },
    "properties": {
    "reseller_name":"Ma Pharmacie de Chalais SA",
    "reseller_full_address":"Rue de la Forge 15 3966 Chalais"
    }
  },
  {
    "type": "Feature",
    "geometry": {
       "type": "Point",
       "coordinates":  [ 6.0834134,46.2166412 ]
    },
    "properties": {
    "reseller_name":"Sun Store Vernier SA 12086",
    "reseller_full_address":"Route de Peney 2-4 1214 Vernier"
    }
  },
  {
    "type": "Feature",
    "geometry": {
       "type": "Point",
       "coordinates":  [ 7.294805599999999,46.2236766 ]
    },
    "properties": {
    "reseller_name":"Coop Vitality Conthey 21011",
    "reseller_full_address":"Rue de la Madeleine 2 1964 Conthey"
    }
  },
  {
    "type": "Feature",
    "geometry": {
       "type": "Point",
       "coordinates":  [ 7.0583866,46.6213262 ]
    },
    "properties": {
    "reseller_name":"Pharmacie du Levant",
    "reseller_full_address":"Route de Riaz 6 1630 Bulle"
    }
  },
  {
    "type": "Feature",
    "geometry": {
       "type": "Point",
       "coordinates":  [ 7.4281211,46.9303284 ]
    },
    "properties": {
    "reseller_name":"Drogerie  Steinhözli",
    "reseller_full_address":"Kirchstrasse 4 3097 Liebefeld"
    }
  },
  {
    "type": "Feature",
    "geometry": {
       "type": "Point",
       "coordinates":  [ 6.157400399999999,46.200973 ]
    },
    "properties": {
    "reseller_name":"Pharmacie de la Terrassière",
    "reseller_full_address":"Rue de la Terrassière 13 1207 Genève"
    }
  },
  {
    "type": "Feature",
    "geometry": {
       "type": "Point",
       "coordinates":  [ 6.6707398,46.548042 ]
    },
    "properties": {
    "reseller_name":"Amavita Croix-Blanche 10049",
    "reseller_full_address":"Place de la Croix-Blanche 5 1066 Epalinges"
    }
  },
  {
    "type": "Feature",
    "geometry": {
       "type": "Point",
       "coordinates":  [ 6.502076,46.8228759 ]
    },
    "properties": {
    "reseller_name":"Pharmacie Touré SARL",
    "reseller_full_address":"Rue Centrale 14 1450 Sainte-Croix"
    }
  },
  {
    "type": "Feature",
    "geometry": {
       "type": "Point",
       "coordinates":  [ 6.308037499999999,46.5101983 ]
    },
    "properties": {
    "reseller_name":"Pharmacie de Gimel",
    "reseller_full_address":"Rue Billard 13 1188 Gimel"
    }
  },
  {
    "type": "Feature",
    "geometry": {
       "type": "Point",
       "coordinates":  [ 7.0574669,46.623698 ]
    },
    "properties": {
    "reseller_name":"Sun Store Bulle Migros SA 12021",
    "reseller_full_address":"Rue du Château-d´en-Bas 2 1630 Bulle"
    }
  },
  {
    "type": "Feature",
    "geometry": {
       "type": "Point",
       "coordinates":  [ 6.9385679,46.8216511 ]
    },
    "properties": {
    "reseller_name":"Amavita La Broye 10011",
    "reseller_full_address":"Grand-Rue 26 1530 Payerne"
    }
  },
  {
    "type": "Feature",
    "geometry": {
       "type": "Point",
       "coordinates":  [ 7.0575926,46.6182943 ]
    },
    "properties": {
    "reseller_name":"Pharmacies BENU SA / St-Pierre",
    "reseller_full_address":"Grand-Rue 14 1630 Bulle"
    }
  },
  {
    "type": "Feature",
    "geometry": {
       "type": "Point",
       "coordinates":  [ 7.0794888,47.4212232 ]
    },
    "properties": {
    "reseller_name":"Pharmacie Plus Milliet GARE",
    "reseller_full_address":"Rue Xavier-Stockmar 2 2900 Porrentruy"
    }
  },
  {
    "type": "Feature",
    "geometry": {
       "type": "Point",
       "coordinates":  [ 6.8952135,46.4652894 ]
    },
    "properties": {
    "reseller_name":"Sun Store Blonay SA 12073",
    "reseller_full_address":"Route du Village 37 1807 Blonay"
    }
  },
  {
    "type": "Feature",
    "geometry": {
       "type": "Point",
       "coordinates":  [ 6.6834543,46.5160125 ]
    },
    "properties": {
    "reseller_name":"Pharmacie de Belmont",
    "reseller_full_address":"Centre commercial de Belmont 1092 Belmont-sur-Lausanne"
    }
  },
  {
    "type": "Feature",
    "geometry": {
       "type": "Point",
       "coordinates":  [ 8.5349445,47.36738099999999 ]
    },
    "properties": {
    "reseller_name":"Müller Reformhaus Vitalshop AG",
    "reseller_full_address":"Stockerstrasse 38 8002 Zürich"
    }
  },
  {
    "type": "Feature",
    "geometry": {
       "type": "Point",
       "coordinates":  [ 8.1801184,47.2360305 ]
    },
    "properties": {
    "reseller_name":"Drogerie Sommerhalder",
    "reseller_full_address":"Dorfstrasse 18 5736 Burg Ag"
    }
  },
  {
    "type": "Feature",
    "geometry": {
       "type": "Point",
       "coordinates":  [ 6.118791,46.1904484 ]
    },
    "properties": {
    "reseller_name":"Amavita Petit-Lancy 10009",
    "reseller_full_address":"Route de Chancy 28 1213 Petit-Lancy"
    }
  },
  {
    "type": "Feature",
    "geometry": {
       "type": "Point",
       "coordinates":  [ 6.5225839,46.6071462 ]
    },
    "properties": {
    "reseller_name":"Pharmacie de la Venoge SA",
    "reseller_full_address":"Ch. de l´Islettaz 1 1305 Penthalaz"
    }
  },
  {
    "type": "Feature",
    "geometry": {
       "type": "Point",
       "coordinates":  [ 6.9957655,47.012307 ]
    },
    "properties": {
    "reseller_name":"Sun Store Marin Manor SA 241",
    "reseller_full_address":"Avenue des Champs-Montants 2 2074 Marin-Epagnier"
    }
  },
  {
    "type": "Feature",
    "geometry": {
       "type": "Point",
       "coordinates":  [ 7.161238,46.776154 ]
    },
    "properties": {
    "reseller_name":"Pharmacies BENU SA / Marly",
    "reseller_full_address":"Centre Migros 1723 Marly"
    }
  },
  {
    "type": "Feature",
    "geometry": {
       "type": "Point",
       "coordinates":  [ 7.118254899999999,46.928755 ]
    },
    "properties": {
    "reseller_name":"Drogerie Aebi",
    "reseller_full_address":"Hauptgasse 50 3280 Murten"
    }
  },
  {
    "type": "Feature",
    "geometry": {
       "type": "Point",
       "coordinates":  [ 7.384167499999998,46.231418 ]
    },
    "properties": {
    "reseller_name":"Pharmacies BENU SA / Tourbillon",
    "reseller_full_address":"Rue du Grand Champsec 30 1950 Sion"
    }
  },
  {
    "type": "Feature",
    "geometry": {
       "type": "Point",
       "coordinates":  [ 6.645222200000001,46.8091976 ]
    },
    "properties": {
    "reseller_name":"Pharmacie de Grandson",
    "reseller_full_address":"Rue Haute 2 1422 Grandson"
    }
  },
  {
    "type": "Feature",
    "geometry": {
       "type": "Point",
       "coordinates":  [ 7.060724899999999,47.05640080000001 ]
    },
    "properties": {
    "reseller_name":"Amavita des 2 Thielles 10078",
    "reseller_full_address":"Route de Neuchâtel  46 2525 Le Landeron"
    }
  },
  {
    "type": "Feature",
    "geometry": {
       "type": "Point",
       "coordinates":  [ 7.3720798,46.5529071 ]
    },
    "properties": {
    "reseller_name":"Pedro Drogerie Moser",
    "reseller_full_address":"Mätteli - Zentrum\nMühlegasse 1 3770 Zweisimmen"
    }
  },
  {
    "type": "Feature",
    "geometry": {
       "type": "Point",
       "coordinates":  [ 7.9714141,47.2484306 ]
    },
    "properties": {
    "reseller_name":"Drogerie SOLARIS GmbH",
    "reseller_full_address":"Hauptstrasse 52 6260 Reiden"
    }
  },
  {
    "type": "Feature",
    "geometry": {
       "type": "Point",
       "coordinates":  [ 7.0996915,47.2228162 ]
    },
    "properties": {
    "reseller_name":"Pharmacie Amavita Tramelan 10021",
    "reseller_full_address":"Grand-Rue 153 2720 Tramelan"
    }
  },
  {
    "type": "Feature",
    "geometry": {
       "type": "Point",
       "coordinates":  [ 6.5816545,46.5378403 ]
    },
    "properties": {
    "reseller_name":"Pharmacie Amavita Les Arcades 10005",
    "reseller_full_address":"Rue du Midi 10 1020 Renens"
    }
  },
  {
    "type": "Feature",
    "geometry": {
       "type": "Point",
       "coordinates":  [ 6.659874299999999,46.5104182 ]
    },
    "properties": {
    "reseller_name":"Amavita Pulliérane 10053",
    "reseller_full_address":"Rue de la Poste 26 1009 Pully"
    }
  },
  {
    "type": "Feature",
    "geometry": {
       "type": "Point",
       "coordinates":  [ 6.955872899999999,47.0043233 ]
    },
    "properties": {
    "reseller_name":"Amavita Portes-Rouges 10015",
    "reseller_full_address":"Avenue Portes-Rouges 46 2009 Neuchâtel 9 "
    }
  },
  {
    "type": "Feature",
    "geometry": {
       "type": "Point",
       "coordinates":  [ 6.121093399999999,46.16911349999999 ]
    },
    "properties": {
    "reseller_name":"Pharmacie Pré-du-Camp",
    "reseller_full_address":"Chemin de Vers 4 1228 Plan-les-Ouates"
    }
  },
  {
    "type": "Feature",
    "geometry": {
       "type": "Point",
       "coordinates":  [ 6.5530693,46.5479466 ]
    },
    "properties": {
    "reseller_name":"Pharmacie Miserez SA",
    "reseller_full_address":"Rue de la Gare 4 1030 Bussigny"
    }
  },
  {
    "type": "Feature",
    "geometry": {
       "type": "Point",
       "coordinates":  [ 6.9183892,46.3760844 ]
    },
    "properties": {
    "reseller_name":"Sun Store Villeneuve SA 12033",
    "reseller_full_address":"Centre Riviera-Coop 1847 Rennaz-Villeneuve"
    }
  },
  {
    "type": "Feature",
    "geometry": {
       "type": "Point",
       "coordinates":  [ 6.1200983,46.22912059999999 ]
    },
    "properties": {
    "reseller_name":"Pharmacie Amavita du Pommier",
    "reseller_full_address":"Rue Sonnex 14 1218 La Grand Sacconnex"
    }
  },
  {
    "type": "Feature",
    "geometry": {
       "type": "Point",
       "coordinates":  [ 6.9496525,46.2519087 ]
    },
    "properties": {
    "reseller_name":"Droguerie Centrale Garrone",
    "reseller_full_address":"Av. de l´Industrie 8 1870 Monthey"
    }
  },
  {
    "type": "Feature",
    "geometry": {
       "type": "Point",
       "coordinates":  [ 7.295281799999999,46.22446610000001 ]
    },
    "properties": {
    "reseller_name":"Sun Store Conthey SA 12015",
    "reseller_full_address":"Bassin Centre 1964 Conthey"
    }
  },
  {
    "type": "Feature",
    "geometry": {
       "type": "Point",
       "coordinates":  [ 7.1244435,46.8649607 ]
    },
    "properties": {
    "reseller_name":"Amavita Courtepin 10030",
    "reseller_full_address":"Le Centre 2 1784 Courtepin"
    }
  },
  {
    "type": "Feature",
    "geometry": {
       "type": "Point",
       "coordinates":  [ 6.1549591,46.2551769 ]
    },
    "properties": {
    "reseller_name":"Pharmacie de Bellevue",
    "reseller_full_address":"Route de Lausanne 337 1293 Genève"
    }
  },
  {
    "type": "Feature",
    "geometry": {
       "type": "Point",
       "coordinates":  [ 6.948675,46.2526446 ]
    },
    "properties": {
    "reseller_name":"Pharmacie Amavita Raboud 10081",
    "reseller_full_address":"Rue du Midi 2 1870 Monthey"
    }
  },
  {
    "type": "Feature",
    "geometry": {
       "type": "Point",
       "coordinates":  [ 6.2368463,46.3845254 ]
    },
    "properties": {
    "reseller_name":"Pharmacie Nyonnaise",
    "reseller_full_address":"Place de la Gare 43 1260 Nyon"
    }
  },
  {
    "type": "Feature",
    "geometry": {
       "type": "Point",
       "coordinates":  [ 6.8483526,46.509955 ]
    },
    "properties": {
    "reseller_name":"Pharmacie d'Attalens",
    "reseller_full_address":"Grand rue 9 1616 Attalens"
    }
  },
  {
    "type": "Feature",
    "geometry": {
       "type": "Point",
       "coordinates":  [ 6.8823061,46.9851335 ]
    },
    "properties": {
    "reseller_name":"Pharmacies BENU SA / De la Côte",
    "reseller_full_address":"Grand-Rue 10 2035 Corcelles-Cormondrèche"
    }
  },
  {
    "type": "Feature",
    "geometry": {
       "type": "Point",
       "coordinates":  [ 6.6104265,46.5379851 ]
    },
    "properties": {
    "reseller_name":"Pharmacie de la Vallombreuse SA",
    "reseller_full_address":"Mont Goulin 21 1008 Prilly"
    }
  },
  {
    "type": "Feature",
    "geometry": {
       "type": "Point",
       "coordinates":  [ 6.6119043,46.5167721 ]
    },
    "properties": {
    "reseller_name":"Amavita Mont-d'Or 10051",
    "reseller_full_address":"Avenue de cour 110 1007 Lausanne"
    }
  },
  {
    "type": "Feature",
    "geometry": {
       "type": "Point",
       "coordinates":  [ 7.345857599999999,47.3654975 ]
    },
    "properties": {
    "reseller_name":"Droguerie J. Morgenthaler Courrendlin SA",
    "reseller_full_address":"rue des Bâts 4 2800 Delémont"
    }
  },
  {
    "type": "Feature",
    "geometry": {
       "type": "Point",
       "coordinates":  [ 8.594213,47.50477619999999 ]
    },
    "properties": {
    "reseller_name":"Dorf-Drogerie, Weidmannn Doris",
    "reseller_full_address":"Dorfstrasse 54 8424 Embrach"
    }
  },
  {
    "type": "Feature",
    "geometry": {
       "type": "Point",
       "coordinates":  [ 7.2436142,47.13425420000001 ]
    },
    "properties": {
    "reseller_name":"Amavita Apotheke Dr. Steiner",
    "reseller_full_address":"Bahnhofstrasse 9 2502 Biel"
    }
  },
  {
    "type": "Feature",
    "geometry": {
       "type": "Point",
       "coordinates":  [ 6.9097184,46.4316974 ]
    },
    "properties": {
    "reseller_name":"Sun Store Montreux SA 12059",
    "reseller_full_address":"Place du Marché 6 1820 Montreux"
    }
  },
  {
    "type": "Feature",
    "geometry": {
       "type": "Point",
       "coordinates":  [ 6.911228,46.4436689 ]
    },
    "properties": {
    "reseller_name":"Pharmacie de Chernex",
    "reseller_full_address":"Rue des Deux Fontaines 11 1822 Chernex"
    }
  },
  {
    "type": "Feature",
    "geometry": {
       "type": "Point",
       "coordinates":  [ 6.605268799999999,46.5846506 ]
    },
    "properties": {
    "reseller_name":"Amavita Cheseaux 10083",
    "reseller_full_address":"Route de Lausanne 5 1033 Cheseaux"
    }
  },
  {
    "type": "Feature",
    "geometry": {
       "type": "Point",
       "coordinates":  [ 8.3670397,47.09457 ]
    },
    "properties": {
    "reseller_name":"Ihre Hebamme",
    "reseller_full_address":"Hirselenstrasse 8 6036 Dierikon"
    }
  },
  {
    "type": "Feature",
    "geometry": {
       "type": "Point",
       "coordinates":  [ 6.9304999,46.9920368 ]
    },
    "properties": {
    "reseller_name":"Pharmacie  Sun Store Neuchatel 12097",
    "reseller_full_address":"Rue de l´Hôpital 2 2000 Neuchâtel"
    }
  },
  {
    "type": "Feature",
    "geometry": {
       "type": "Point",
       "coordinates":  [ 7.0076371,46.3416249 ]
    },
    "properties": {
    "reseller_name":"Pharmacie BENU / Leysin",
    "reseller_full_address":"Avenue Rollier 1854 Leysin"
    }
  },
  {
    "type": "Feature",
    "geometry": {
       "type": "Point",
       "coordinates":  [ 6.910588499999999,46.4308399 ]
    },
    "properties": {
    "reseller_name":"Amavita Montreux 10067",
    "reseller_full_address":"Avenue du Casino 53 1820 Montreux"
    }
  },
  {
    "type": "Feature",
    "geometry": {
       "type": "Point",
       "coordinates":  [ 6.828920999999999,47.10284240000001 ]
    },
    "properties": {
    "reseller_name":"Amavita Espacité 10017",
    "reseller_full_address":"Espacité 5 2300 La Chaux-de-Fonds"
    }
  },
  {
    "type": "Feature",
    "geometry": {
       "type": "Point",
       "coordinates":  [ 6.619494899999999,46.5307431 ]
    },
    "properties": {
    "reseller_name":"Pharmacie des Bergières",
    "reseller_full_address":"Avenue des Bergières 42 1004 Lausanne"
    }
  },
  {
    "type": "Feature",
    "geometry": {
       "type": "Point",
       "coordinates":  [ 6.1394806,46.2072332 ]
    },
    "properties": {
    "reseller_name":"Pharmacie Bedat SA",
    "reseller_full_address":"Angle James Fazy 7/ Voltaire 2 1201 Genève"
    }
  },
  {
    "type": "Feature",
    "geometry": {
       "type": "Point",
       "coordinates":  [ 6.627206999999999,46.52266179999999 ]
    },
    "properties": {
    "reseller_name":"Sun Store Lausanne Métropole SA 12024",
    "reseller_full_address":"Rue des Terreaux 25 1003 Lausanne"
    }
  },
  {
    "type": "Feature",
    "geometry": {
       "type": "Point",
       "coordinates":  [ 6.6849443,46.5023648 ]
    },
    "properties": {
    "reseller_name":"Pharmacies BENU SA / Lutry",
    "reseller_full_address":"Grand-Rue 26 1095 Lutry"
    }
  },
  {
    "type": "Feature",
    "geometry": {
       "type": "Point",
       "coordinates":  [ 6.2388048,46.3852597 ]
    },
    "properties": {
    "reseller_name":"Pharmacies BENU SA / St-Jean",
    "reseller_full_address":"Avenue Perdtemps 15 1260 Nyon"
    }
  },
  {
    "type": "Feature",
    "geometry": {
       "type": "Point",
       "coordinates":  [ 6.6357865,46.6390289 ]
    },
    "properties": {
    "reseller_name":"Sun Store Echallens SA 12038",
    "reseller_full_address":"Rue de Praz-Palud 2 1040 Echallens"
    }
  },
  {
    "type": "Feature",
    "geometry": {
       "type": "Point",
       "coordinates":  [ 6.640177599999999,46.5853974 ]
    },
    "properties": {
    "reseller_name":"Pharmacies BENU SA / Cugy",
    "reseller_full_address":"Route de Bottens 1 1053 Cugy"
    }
  },
  {
    "type": "Feature",
    "geometry": {
       "type": "Point",
       "coordinates":  [ 6.5787204,46.5365776 ]
    },
    "properties": {
    "reseller_name":"Amavita Gare Renens 10026",
    "reseller_full_address":"Place de la gare 4 1020 Renens"
    }
  },
  {
    "type": "Feature",
    "geometry": {
       "type": "Point",
       "coordinates":  [ 7.3601571,46.23154900000001 ]
    },
    "properties": {
    "reseller_name":"Institut New Bodyline",
    "reseller_full_address":"Pass. Remparts 25 1950 Sion"
    }
  },
  {
    "type": "Feature",
    "geometry": {
       "type": "Point",
       "coordinates":  [ 6.1091621,46.1907387 ]
    },